{
  "version": 0.6,
  "generator": "Overpass API 0.7.55.4 3079d8ea",
  "osm3s": {
    "timestamp_osm_base": "2018-10-20T12:04:02Z",
    "copyright": "The data included in this document is from www.openstreetmap.org. The data is made available under ODbL."
  },
  "elements": [

{
  "type": "node",
  "id": 355173753,
  "lat": 35.1467213,
  "lon": 126.9198583,
  "tags": {
    "name": "문화전당(구도청)",
    "name:en": "Asia Culture Center(Former Provincial Office)",
    "name:ja": "文化殿堂(旧道庁)駅",
    "name:ko-Latn": "Munhwajeondangyeok",
    "name:zh": "文化殿堂(旧道厅)站",
    "public_transport": "stop_position",
    "railway": "station",
    "station": "subway",
    "subway": "yes"
  }
},
{
  "type": "node",
  "id": 368605258,
  "lat": 35.1492000,
  "lon": 126.9198514,
  "tags": {
    "amenity": "police",
    "name": "광주동부경찰서",
    "name:en": "Gwangjudongbu Police Station",
    "name:ja": "光州東部警察署",
    "name:ko-Latn": "Gwangjudongbugyeongchalseo",
    "ncat": "경찰서",
    "source": "http://kr.open.gugi.yahoo.com"
  }
},
{
  "type": "node",
  "id": 368634536,
  "lat": 35.1542595,
  "lon": 126.9151473,
  "tags": {
    "amenity": "cinema",
    "name": "라인극장 (Rain Cinema)",
    "name:en": "Rain Cinema",
    "name:ko-Latn": "Raingeukjang",
    "ncat": "극장",
    "source": "http://kr.open.gugi.yahoo.com"
  }
},
{
  "type": "node",
  "id": 368634730,
  "lat": 35.1489100,
  "lon": 126.9152650,
  "tags": {
    "amenity": "cinema",
    "name": "신동아극장",
    "name:en": "Sindonga Cinema",
    "name:ko-Latn": "Sindongageukjang",
    "ncat": "극장",
    "source": "http://kr.open.gugi.yahoo.com"
  }
},
{
  "type": "node",
  "id": 368634896,
  "lat": 35.1510367,
  "lon": 126.9113511,
  "tags": {
    "amenity": "cinema",
    "name": "엔터시네마",
    "name:en": "Enteo Cinema",
    "name:ko-Latn": "Enteosinema",
    "ncat": "극장",
    "source": "http://kr.open.gugi.yahoo.com"
  }
},
{
  "type": "node",
  "id": 368635504,
  "lat": 35.1498450,
  "lon": 126.9180180,
  "tags": {
    "amenity": "cinema",
    "name": "궁동예술극장",
    "name:en": "Gungdong Art Cinema",
    "name:ko-Latn": "Gungdongyesulgeukjang",
    "ncat": "극장",
    "source": "http://kr.open.gugi.yahoo.com"
  }
},
{
  "type": "node",
  "id": 368641495,
  "lat": 35.1599962,
  "lon": 126.9102387,
  "tags": {
    "amenity": "bank",
    "atm": "yes",
    "name": "전남농협 (Jeonnam Nonghyup)",
    "name:en": "Jeonnam Nonghyup",
    "name:ko-Latn": "Jeonnamnonghyeop",
    "ncat": "농협",
    "source": "http://kr.open.gugi.yahoo.com"
  }
},
{
  "type": "node",
  "id": 368658523,
  "lat": 35.1543402,
  "lon": 126.9283286,
  "tags": {
    "amenity": "library",
    "name": "산수도서관",
    "name:en": "Sansu Library",
    "name:ko": "산수도서관",
    "name:ko-Latn": "Sansudoseogwan",
    "ncat": "도서관",
    "source": "http://kr.open.gugi.yahoo.com"
  }
},
{
  "type": "node",
  "id": 368675590,
  "lat": 35.1486080,
  "lon": 126.9158400,
  "tags": {
    "name": "줄리아나마트 (Julliana Mart)",
    "name:en": "Julliana Mart",
    "name:ko-Latn": "Jullianamateu",
    "ncat": "마트",
    "shop": "supermarket",
    "source": "http://kr.open.gugi.yahoo.com"
  }
},
{
  "type": "node",
  "id": 368676044,
  "lat": 35.1466190,
  "lon": 126.9141210,
  "tags": {
    "name": "에덴마트 (Eden Mart)",
    "name:en": "Eden Mart",
    "name:ko-Latn": "Edenmateu",
    "ncat": "마트",
    "shop": "supermarket",
    "source": "http://kr.open.gugi.yahoo.com"
  }
},
{
  "type": "node",
  "id": 368676055,
  "lat": 35.1572760,
  "lon": 126.9285240,
  "tags": {
    "name": "한빛마트 (Hanbich Mart)",
    "name:en": "Hanbich Mart",
    "name:ko-Latn": "Hanbichmateu",
    "ncat": "마트",
    "shop": "supermarket",
    "source": "http://kr.open.gugi.yahoo.com"
  }
},
{
  "type": "node",
  "id": 368677027,
  "lat": 35.1446890,
  "lon": 126.9110730,
  "tags": {
    "name": "그린마트",
    "name:en": "Green Mart",
    "name:ko-Latn": "Geurinmateu",
    "ncat": "마트",
    "shop": "supermarket",
    "source": "http://kr.open.gugi.yahoo.com"
  }
},
{
  "type": "node",
  "id": 368677767,
  "lat": 35.1503710,
  "lon": 126.9113600,
  "tags": {
    "name": "동진종합마트 (Dongjinjonghap Mart)",
    "name:en": "Dongjinjonghap Mart",
    "name:ko-Latn": "Dongjinjonghammateu",
    "ncat": "마트",
    "shop": "supermarket",
    "source": "http://kr.open.gugi.yahoo.com"
  }
},
{
  "type": "node",
  "id": 368678014,
  "lat": 35.1473911,
  "lon": 126.9193739,
  "tags": {
    "name": "구시청슈퍼마트 (Gu City Hall Syupeo Mart)",
    "name:en": "Gu City Hall Syupeo Mart",
    "name:ko-Latn": "Gusicheongsyupeomateu",
    "ncat": "마트",
    "shop": "supermarket",
    "source": "http://kr.open.gugi.yahoo.com"
  }
},
{
  "type": "node",
  "id": 368678147,
  "lat": 35.1537588,
  "lon": 126.9195332,
  "tags": {
    "name": "화장품마트",
    "name:en": "Hwajangpum Mart",
    "name:ko-Latn": "Hwajangpummateu",
    "ncat": "마트",
    "shop": "supermarket",
    "source": "http://kr.open.gugi.yahoo.com"
  }
},
{
  "type": "node",
  "id": 368678282,
  "lat": 35.1459828,
  "lon": 126.9220887,
  "tags": {
    "name": "씨엔씨마트",
    "name:en": "CNC Mart",
    "name:ja": "CNCマート",
    "name:ko-Latn": "Ssienssimateu",
    "ncat": "마트",
    "shop": "supermarket",
    "source": "http://kr.open.gugi.yahoo.com"
  }
},
{
  "type": "node",
  "id": 368710532,
  "lat": 35.1449730,
  "lon": 126.9185990,
  "tags": {
    "name": "다이아모텔",
    "name:en": "Daia Motel",
    "name:ko-Latn": "Daiamotel",
    "ncat": "모텔",
    "source": "http://kr.open.gugi.yahoo.com",
    "tourism": "motel"
  }
},
{
  "type": "node",
  "id": 368710575,
  "lat": 35.1569300,
  "lon": 126.9180240,
  "tags": {
    "name": "모노모텔 (Mono Motel)",
    "name:en": "Mono Motel",
    "name:ko-Latn": "Monomotel",
    "ncat": "모텔",
    "source": "http://kr.open.gugi.yahoo.com",
    "tourism": "motel"
  }
},
{
  "type": "node",
  "id": 368710685,
  "lat": 35.1494760,
  "lon": 126.9111090,
  "tags": {
    "name": "젤존모텔 (Jeljon Motel)",
    "name:en": "Jeljon Motel",
    "name:ko-Latn": "Jeljonmotel",
    "ncat": "모텔",
    "source": "http://kr.open.gugi.yahoo.com",
    "tourism": "motel"
  }
},
{
  "type": "node",
  "id": 368710697,
  "lat": 35.1552170,
  "lon": 126.9180130,
  "tags": {
    "name": "조이모텔 (Joi Motel)",
    "name:en": "Joi Motel",
    "name:ko-Latn": "Joimotel",
    "ncat": "모텔",
    "source": "http://kr.open.gugi.yahoo.com",
    "tourism": "motel"
  }
},
{
  "type": "node",
  "id": 368710746,
  "lat": 35.1500771,
  "lon": 126.9166163,
  "tags": {
    "name": "반도모텔",
    "name:en": "Bando Motel",
    "name:ko-Latn": "Bandomotel",
    "ncat": "모텔",
    "source": "http://kr.open.gugi.yahoo.com",
    "tourism": "motel"
  }
},
{
  "type": "node",
  "id": 368710747,
  "lat": 35.1551860,
  "lon": 126.9134800,
  "tags": {
    "name": "아름모텔 (Areum Motel)",
    "name:en": "Areum Motel",
    "name:ko-Latn": "Areummotel",
    "ncat": "모텔",
    "source": "http://kr.open.gugi.yahoo.com",
    "tourism": "motel"
  }
},
{
  "type": "node",
  "id": 368710790,
  "lat": 35.1442901,
  "lon": 126.9149872,
  "tags": {
    "name": "황금모텔",
    "name:en": "Hwanggeum Motel",
    "name:ko-Latn": "Hwanggeummotel",
    "ncat": "모텔",
    "source": "http://kr.open.gugi.yahoo.com",
    "tourism": "motel"
  }
},
{
  "type": "node",
  "id": 368710942,
  "lat": 35.1548310,
  "lon": 126.9140560,
  "tags": {
    "name": "효성모텔 (Hyoseong Motel)",
    "name:en": "Hyoseong Motel",
    "name:ko-Latn": "Hyoseongmotel",
    "ncat": "모텔",
    "source": "http://kr.open.gugi.yahoo.com",
    "tourism": "motel"
  }
},
{
  "type": "node",
  "id": 368710975,
  "lat": 35.1437955,
  "lon": 126.9164482,
  "tags": {
    "name": "샤넬모텔",
    "name:en": "Syanel Motel",
    "name:ko-Latn": "Syanelmotel",
    "ncat": "모텔",
    "source": "http://kr.open.gugi.yahoo.com",
    "tourism": "motel"
  }
},
{
  "type": "node",
  "id": 368711027,
  "lat": 35.1522910,
  "lon": 126.9153630,
  "tags": {
    "name": "굿모닝모텔 (Good Morning Motel)",
    "name:en": "Good Morning Motel",
    "name:ko-Latn": "Gutmoningmotel",
    "ncat": "모텔",
    "source": "http://kr.open.gugi.yahoo.com",
    "tourism": "motel"
  }
},
{
  "type": "node",
  "id": 368711151,
  "lat": 35.1452393,
  "lon": 126.9139414,
  "tags": {
    "name": "샹보르모텔",
    "name:en": "Syangboreu Motel",
    "name:ko-Latn": "Syangboreumotel",
    "ncat": "모텔",
    "source": "http://kr.open.gugi.yahoo.com",
    "tourism": "motel"
  }
},
{
  "type": "node",
  "id": 368711159,
  "lat": 35.1449750,
  "lon": 126.9178410,
  "tags": {
    "name": "근화장모텔 (Geunhwajang Motel)",
    "name:en": "Geunhwajang Motel",
    "name:ko-Latn": "Geunhwajangmotel",
    "ncat": "모텔",
    "source": "http://kr.open.gugi.yahoo.com",
    "tourism": "motel"
  }
},
{
  "type": "node",
  "id": 368711164,
  "lat": 35.1455510,
  "lon": 126.9177680,
  "tags": {
    "name": "해비치모텔 (Hae Beach Motel)",
    "name:en": "Hae Beach Motel",
    "name:ko-Latn": "Haebichimotel",
    "ncat": "모텔",
    "source": "http://kr.open.gugi.yahoo.com",
    "tourism": "motel"
  }
},
{
  "type": "node",
  "id": 368711171,
  "lat": 35.1400872,
  "lon": 126.9192341,
  "tags": {
    "name": "보보스모텔 (Boboseu Motel)",
    "name:en": "Boboseu Motel",
    "name:ko-Latn": "Boboseumotel",
    "ncat": "모텔",
    "source": "http://kr.open.gugi.yahoo.com",
    "tourism": "motel"
  }
},
{
  "type": "node",
  "id": 368711204,
  "lat": 35.1402670,
  "lon": 126.9195500,
  "tags": {
    "name": "로망스모텔 (Romangseu Motel)",
    "name:en": "Romangseu Motel",
    "name:ko-Latn": "Romangseumotel",
    "ncat": "모텔",
    "source": "http://kr.open.gugi.yahoo.com",
    "tourism": "motel"
  }
},
{
  "type": "node",
  "id": 368711233,
  "lat": 35.1545810,
  "lon": 126.9153540,
  "tags": {
    "name": "도드람모텔 (Dodeuram Motel)",
    "name:en": "Dodeuram Motel",
    "name:ko-Latn": "Dodeurammotel",
    "ncat": "모텔",
    "source": "http://kr.open.gugi.yahoo.com",
    "tourism": "motel"
  }
},
{
  "type": "node",
  "id": 368711243,
  "lat": 35.1546920,
  "lon": 126.9147490,
  "tags": {
    "name": "모나코모텔 (Monako Motel)",
    "name:en": "Monako Motel",
    "name:ko-Latn": "Monakomotel",
    "ncat": "모텔",
    "source": "http://kr.open.gugi.yahoo.com",
    "tourism": "motel"
  }
},
{
  "type": "node",
  "id": 368711312,
  "lat": 35.1400290,
  "lon": 126.9202220,
  "tags": {
    "name": "에로스모텔 (Eroseu Motel)",
    "name:en": "Eroseu Motel",
    "name:ko-Latn": "Eroseumotel",
    "ncat": "모텔",
    "source": "http://kr.open.gugi.yahoo.com",
    "tourism": "motel"
  }
},
{
  "type": "node",
  "id": 368711432,
  "lat": 35.1557740,
  "lon": 126.9136700,
  "tags": {
    "name": "에로스모텔 (Eroseu Motel)",
    "name:en": "Eroseu Motel",
    "name:ko-Latn": "Eroseumotel",
    "ncat": "모텔",
    "source": "http://kr.open.gugi.yahoo.com",
    "tourism": "motel"
  }
},
{
  "type": "node",
  "id": 368711451,
  "lat": 35.1555854,
  "lon": 126.9138561,
  "tags": {
    "name": "산체스모텔 (Sancheseu Motel)",
    "name:en": "Sancheseu Motel",
    "name:ko-Latn": "Sancheseumotel",
    "ncat": "모텔",
    "source": "http://kr.open.gugi.yahoo.com",
    "tourism": "motel"
  }
},
{
  "type": "node",
  "id": 368711519,
  "lat": 35.1562720,
  "lon": 126.9200080,
  "tags": {
    "name": "시드니모텔 (Sideuni Motel)",
    "name:en": "Sideuni Motel",
    "name:ko-Latn": "Sideunimotel",
    "ncat": "모텔",
    "source": "http://kr.open.gugi.yahoo.com",
    "tourism": "motel"
  }
},
{
  "type": "node",
  "id": 368711542,
  "lat": 35.1556510,
  "lon": 126.9140670,
  "tags": {
    "name": "스카라모텔 (Seukara Motel)",
    "name:en": "Seukara Motel",
    "name:ko-Latn": "Seukaramotel",
    "ncat": "모텔",
    "source": "http://kr.open.gugi.yahoo.com",
    "tourism": "motel"
  }
},
{
  "type": "node",
  "id": 368711598,
  "lat": 35.1507020,
  "lon": 126.9100500,
  "tags": {
    "name": "아미가모텔 (Amiga Motel)",
    "name:en": "Amiga Motel",
    "name:ko-Latn": "Amigamotel",
    "ncat": "모텔",
    "source": "http://kr.open.gugi.yahoo.com",
    "tourism": "motel"
  }
},
{
  "type": "node",
  "id": 368711680,
  "lat": 35.1435920,
  "lon": 126.9174430,
  "tags": {
    "name": "하우젠모텔",
    "name:en": "Haujen Motel",
    "name:ko-Latn": "Haujenmotel",
    "ncat": "모텔",
    "source": "http://kr.open.gugi.yahoo.com",
    "tourism": "motel"
  }
},
{
  "type": "node",
  "id": 368711894,
  "lat": 35.1573810,
  "lon": 126.9109480,
  "tags": {
    "name": "샤롯데모텔 (Sya Lotte Motel)",
    "name:en": "Sya Lotte Motel",
    "name:ko-Latn": "Syarotdemotel",
    "ncat": "모텔",
    "source": "http://kr.open.gugi.yahoo.com",
    "tourism": "motel"
  }
},
{
  "type": "node",
  "id": 368711925,
  "lat": 35.1553750,
  "lon": 126.9144770,
  "tags": {
    "name": "하와이모텔 (Hawai Motel)",
    "name:en": "Hawai Motel",
    "name:ja": "ハワイモーテル",
    "name:ko-Latn": "Hawaimotel",
    "ncat": "모텔",
    "source": "http://kr.open.gugi.yahoo.com",
    "tourism": "motel"
  }
},
{
  "type": "node",
  "id": 368711984,
  "lat": 35.1549950,
  "lon": 126.9142840,
  "tags": {
    "name": "몰디브모텔 (Moldibeu Motel)",
    "name:en": "Moldibeu Motel",
    "name:ko-Latn": "Moldibeumotel",
    "ncat": "모텔",
    "source": "http://kr.open.gugi.yahoo.com",
    "tourism": "motel"
  }
},
{
  "type": "node",
  "id": 368712082,
  "lat": 35.1489140,
  "lon": 126.9107210,
  "tags": {
    "name": "사파이어모텔 (Sapaieo Motel)",
    "name:en": "Sapaieo Motel",
    "name:ko-Latn": "Sapaieomotel",
    "ncat": "모텔",
    "source": "http://kr.open.gugi.yahoo.com",
    "tourism": "motel"
  }
},
{
  "type": "node",
  "id": 368712098,
  "lat": 35.1402700,
  "lon": 126.9189790,
  "tags": {
    "name": "유토피아모텔 (Yutopia Motel)",
    "name:en": "Yutopia Motel",
    "name:ko-Latn": "Yutopiamotel",
    "ncat": "모텔",
    "source": "http://kr.open.gugi.yahoo.com",
    "tourism": "motel"
  }
},
{
  "type": "node",
  "id": 368712179,
  "lat": 35.1413120,
  "lon": 126.9184930,
  "tags": {
    "name": "에버그린모텔 (Ebeo Green Motel)",
    "name:en": "Ebeo Green Motel",
    "name:ko-Latn": "Ebeogeurinmotel",
    "ncat": "모텔",
    "source": "http://kr.open.gugi.yahoo.com",
    "tourism": "motel"
  }
},
{
  "type": "node",
  "id": 368712190,
  "lat": 35.1425220,
  "lon": 126.9197940,
  "tags": {
    "name": "발렌타인모텔 (Vallentine Motel)",
    "name:en": "Vallentine Motel",
    "name:ko-Latn": "Ballentainmotel",
    "ncat": "모텔",
    "source": "http://kr.open.gugi.yahoo.com",
    "tourism": "motel"
  }
},
{
  "type": "node",
  "id": 368712263,
  "lat": 35.1455550,
  "lon": 126.9171090,
  "tags": {
    "name": "원투쓰리모텔 (Wontusseuri Motel)",
    "name:en": "Wontusseuri Motel",
    "name:ko-Latn": "Wontusseurimotel",
    "ncat": "모텔",
    "source": "http://kr.open.gugi.yahoo.com",
    "tourism": "motel"
  }
},
{
  "type": "node",
  "id": 368712284,
  "lat": 35.1506330,
  "lon": 126.9275900,
  "tags": {
    "name": "골든리버모텔 (Goldeullibeo Motel)",
    "name:en": "Goldeullibeo Motel",
    "name:ko-Latn": "Goldeullibeomotel",
    "ncat": "모텔",
    "source": "http://kr.open.gugi.yahoo.com",
    "tourism": "motel"
  }
},
{
  "type": "node",
  "id": 368712333,
  "lat": 35.1566860,
  "lon": 126.9188940,
  "tags": {
    "name": "로즈하우스모텔 (Rose House Motel)",
    "name:en": "Rose House Motel",
    "name:ko-Latn": "Rojeuhauseumotel",
    "ncat": "모텔",
    "source": "http://kr.open.gugi.yahoo.com",
    "tourism": "motel"
  }
},
{
  "type": "node",
  "id": 368712356,
  "lat": 35.1565590,
  "lon": 126.9188740,
  "tags": {
    "name": "럭키하우스모텔 (Reokki House Motel)",
    "name:en": "Reokki House Motel",
    "name:ko-Latn": "Reokkihauseumotel",
    "ncat": "모텔",
    "source": "http://kr.open.gugi.yahoo.com",
    "tourism": "motel"
  }
},
{
  "type": "node",
  "id": 368712402,
  "lat": 35.1557860,
  "lon": 126.9130330,
  "tags": {
    "name": "썬모텔 (Sseon Motel)",
    "name:en": "Sseon Motel",
    "name:ko-Latn": "Sseonmotel",
    "ncat": "모텔",
    "source": "http://kr.open.gugi.yahoo.com",
    "tourism": "motel"
  }
},
{
  "type": "node",
  "id": 368726727,
  "lat": 35.1498000,
  "lon": 126.9180080,
  "tags": {
    "amenity": "arts_centre",
    "name": "무등갤러리",
    "name:en": "Mudeung Gallery",
    "name:ko-Latn": "Mudeunggaelleori",
    "ncat": "미술관",
    "source": "http://kr.open.gugi.yahoo.com"
  }
},
{
  "type": "node",
  "id": 368727221,
  "lat": 35.1486650,
  "lon": 126.9181110,
  "tags": {
    "amenity": "arts_centre",
    "name": "동아화랑",
    "name:en": "Donga Gallery",
    "name:ko-Latn": "Dongahwarang",
    "ncat": "미술관",
    "source": "http://kr.open.gugi.yahoo.com"
  }
},
{
  "type": "node",
  "id": 368727229,
  "lat": 35.1497510,
  "lon": 126.9186230,
  "tags": {
    "amenity": "arts_centre",
    "name": "석당화랑",
    "name:en": "Seokdang Gallery",
    "name:ko-Latn": "Seokdanghwarang",
    "ncat": "미술관",
    "source": "http://kr.open.gugi.yahoo.com"
  }
},
{
  "type": "node",
  "id": 368727239,
  "lat": 35.1499890,
  "lon": 126.9179950,
  "tags": {
    "amenity": "arts_centre",
    "name": "중앙화랑",
    "name:en": "Jungang Gallery",
    "name:ko-Latn": "Junganghwarang",
    "ncat": "미술관",
    "source": "http://kr.open.gugi.yahoo.com"
  }
},
{
  "type": "node",
  "id": 368727249,
  "lat": 35.1443690,
  "lon": 126.9196160,
  "tags": {
    "amenity": "arts_centre",
    "name": "삼호화랑 (Samho Gallery)",
    "name:en": "Samho Gallery",
    "name:ko-Latn": "Samhohwarang",
    "ncat": "미술관",
    "source": "http://kr.open.gugi.yahoo.com"
  }
},
{
  "type": "node",
  "id": 368727258,
  "lat": 35.1497830,
  "lon": 126.9182280,
  "tags": {
    "amenity": "arts_centre",
    "name": "박당화랑",
    "name:en": "Bakdang Gallery",
    "name:ko-Latn": "Bakdanghwarang",
    "ncat": "미술관",
    "source": "http://kr.open.gugi.yahoo.com"
  }
},
{
  "type": "node",
  "id": 368727266,
  "lat": 35.1495510,
  "lon": 126.9184060,
  "tags": {
    "amenity": "arts_centre",
    "name": "광주화랑",
    "name:en": "Gwangju Gallery",
    "name:ko-Latn": "Gwangjuhwarang",
    "ncat": "미술관",
    "source": "http://kr.open.gugi.yahoo.com"
  }
},
{
  "type": "node",
  "id": 368727284,
  "lat": 35.1495370,
  "lon": 126.9188790,
  "tags": {
    "amenity": "arts_centre",
    "name": "전주화랑",
    "name:en": "Jeonju Gallery",
    "name:ko-Latn": "Jeonjuhwarang",
    "ncat": "미술관",
    "source": "http://kr.open.gugi.yahoo.com"
  }
},
{
  "type": "node",
  "id": 368727291,
  "lat": 35.1501261,
  "lon": 126.9182879,
  "tags": {
    "amenity": "arts_centre",
    "name": "백년갤러리",
    "name:en": "Baengnyeon Gallery",
    "name:ko-Latn": "Baengnyeongaelleori",
    "ncat": "미술관",
    "source": "http://kr.open.gugi.yahoo.com"
  }
},
{
  "type": "node",
  "id": 368727303,
  "lat": 35.1508090,
  "lon": 126.9189830,
  "tags": {
    "amenity": "arts_centre",
    "name": "꿈엔들갤러리 (Ggumendeul Gallery)",
    "name:en": "Ggumendeul Gallery",
    "name:ko-Latn": "Ggumendeulgaelleori",
    "ncat": "미술관",
    "source": "http://kr.open.gugi.yahoo.com"
  }
},
{
  "type": "node",
  "id": 368727307,
  "lat": 35.1494350,
  "lon": 126.9186060,
  "tags": {
    "amenity": "arts_centre",
    "name": "고금화랑",
    "name:en": "Gogeum Gallery",
    "name:ko-Latn": "Gogeumhwarang",
    "ncat": "미술관",
    "source": "http://kr.open.gugi.yahoo.com"
  }
},
{
  "type": "node",
  "id": 368727317,
  "lat": 35.1574460,
  "lon": 126.9202230,
  "tags": {
    "amenity": "arts_centre",
    "name": "남도화랑 (Namdo Gallery)",
    "name:en": "Namdo Gallery",
    "name:ko-Latn": "Namdohwarang",
    "ncat": "미술관",
    "source": "http://kr.open.gugi.yahoo.com"
  }
},
{
  "type": "node",
  "id": 368727325,
  "lat": 35.1519446,
  "lon": 126.9198541,
  "tags": {
    "amenity": "arts_centre",
    "name": "세종화랑",
    "name:en": "Sejong Gallery",
    "name:ko-Latn": "Sejonghwarang",
    "ncat": "미술관",
    "source": "http://kr.open.gugi.yahoo.com"
  }
},
{
  "type": "node",
  "id": 368727329,
  "lat": 35.1498820,
  "lon": 126.9181610,
  "tags": {
    "amenity": "arts_centre",
    "name": "원화랑",
    "name:en": "Won Gallery",
    "name:ko-Latn": "Wonhwarang",
    "ncat": "미술관",
    "source": "http://kr.open.gugi.yahoo.com"
  }
},
{
  "type": "node",
  "id": 368727347,
  "lat": 35.1421340,
  "lon": 126.9186690,
  "tags": {
    "amenity": "arts_centre",
    "name": "동신화랑 (Dongsin Gallery)",
    "name:en": "Dongsin Gallery",
    "name:ko-Latn": "Dongsinhwarang",
    "ncat": "미술관",
    "source": "http://kr.open.gugi.yahoo.com"
  }
},
{
  "type": "node",
  "id": 368727349,
  "lat": 35.1505900,
  "lon": 126.9187550,
  "tags": {
    "amenity": "arts_centre",
    "name": "미래화랑 (Mirae Gallery)",
    "name:en": "Mirae Gallery",
    "name:ko-Latn": "Miraehwarang",
    "ncat": "미술관",
    "source": "http://kr.open.gugi.yahoo.com"
  }
},
{
  "type": "node",
  "id": 368727357,
  "lat": 35.1500860,
  "lon": 126.9177410,
  "tags": {
    "amenity": "arts_centre",
    "name": "백제화랑",
    "name:en": "Baekje Gallery",
    "name:ko-Latn": "Baekjehwarang",
    "ncat": "미술관",
    "source": "http://kr.open.gugi.yahoo.com"
  }
},
{
  "type": "node",
  "id": 368727363,
  "lat": 35.1498680,
  "lon": 126.9176010,
  "tags": {
    "amenity": "arts_centre",
    "name": "연우당화랑",
    "name:en": "Yeonudang Gallery",
    "name:ko-Latn": "Yeonudanghwarang",
    "ncat": "미술관",
    "source": "http://kr.open.gugi.yahoo.com"
  }
},
{
  "type": "node",
  "id": 368727366,
  "lat": 35.1499060,
  "lon": 126.9178640,
  "tags": {
    "amenity": "arts_centre",
    "name": "예향화랑",
    "name:en": "Yehyang Gallery",
    "name:ko-Latn": "Yehyanghwarang",
    "ncat": "미술관",
    "source": "http://kr.open.gugi.yahoo.com"
  }
},
{
  "type": "node",
  "id": 368727377,
  "lat": 35.1494010,
  "lon": 126.9186395,
  "tags": {
    "amenity": "arts_centre",
    "name": "초대화랑",
    "name:en": "Chodae Gallery",
    "name:ko-Latn": "Chodaehwarang",
    "ncat": "미술관",
    "source": "http://kr.open.gugi.yahoo.com"
  }
},
{
  "type": "node",
  "id": 368727393,
  "lat": 35.1502550,
  "lon": 126.9164870,
  "tags": {
    "amenity": "arts_centre",
    "name": "궁전화랑",
    "name:en": "Gungjeon Gallery",
    "name:ko-Latn": "Gungjeonhwarang",
    "ncat": "미술관",
    "source": "http://kr.open.gugi.yahoo.com"
  }
},
{
  "type": "node",
  "id": 368727397,
  "lat": 35.1501661,
  "lon": 126.9182640,
  "tags": {
    "amenity": "arts_centre",
    "name": "송림화랑",
    "name:en": "Songnim Gallery",
    "name:ko-Latn": "Songnimhwarang",
    "ncat": "미술관",
    "source": "http://kr.open.gugi.yahoo.com"
  }
},
{
  "type": "node",
  "id": 368727409,
  "lat": 35.1507110,
  "lon": 126.9231440,
  "tags": {
    "amenity": "arts_centre",
    "name": "대신화랑 (Daesin Gallery)",
    "name:en": "Daesin Gallery",
    "name:ko-Latn": "Daesinhwarang",
    "ncat": "미술관",
    "source": "http://kr.open.gugi.yahoo.com"
  }
},
{
  "type": "node",
  "id": 368727428,
  "lat": 35.1496023,
  "lon": 126.9188150,
  "tags": {
    "amenity": "arts_centre",
    "name": "예향화랑",
    "name:en": "Yehyang Gallery",
    "name:ko-Latn": "Yehyanghwarang",
    "ncat": "미술관",
    "source": "http://kr.open.gugi.yahoo.com"
  }
},
{
  "type": "node",
  "id": 368727433,
  "lat": 35.1500912,
  "lon": 126.9183392,
  "tags": {
    "amenity": "arts_centre",
    "name": "나인갤러리",
    "name:en": "Nain Gallery",
    "name:ko-Latn": "Naingaelleori",
    "ncat": "미술관",
    "source": "http://kr.open.gugi.yahoo.com"
  }
},
{
  "type": "node",
  "id": 368727439,
  "lat": 35.1494300,
  "lon": 126.9189790,
  "tags": {
    "amenity": "arts_centre",
    "name": "자리아트갤러리",
    "name:en": "Jari Art Gallery",
    "name:ko-Latn": "Jariateu gaelleori",
    "ncat": "미술관",
    "source": "http://kr.open.gugi.yahoo.com"
  }
},
{
  "type": "node",
  "id": 368728397,
  "lat": 35.1489980,
  "lon": 126.9181500,
  "tags": {
    "name": "큰풀안민박",
    "name:en": "Keunpuran Homestay",
    "name:ko-Latn": "Keunpuranminbak",
    "ncat": "민박",
    "source": "http://kr.open.gugi.yahoo.com",
    "tourism": "motel"
  }
},
{
  "type": "node",
  "id": 368760923,
  "lat": 35.1487600,
  "lon": 126.9148400,
  "tags": {
    "amenity": "dentist",
    "name": "스타화이트치과 광주점 (Star White Dental Gwangjujeom)",
    "name:en": "Star White Dental Gwangjujeom",
    "name:ko": "스타화이트치과 광주점",
    "name:ko-Latn": "Seutahwaiteuchigwa Gwangjujeom",
    "ncat": "치과"
  }
},
{
  "type": "node",
  "id": 368760954,
  "lat": 35.1485720,
  "lon": 126.9127560,
  "tags": {
    "amenity": "hospital",
    "name": "세련성형외과",
    "name:en": "Seryeon Plastic Surgery",
    "name:ko-Latn": "Seryeonseonghyeongoegwa",
    "ncat": "병원",
    "source": "http://kr.open.gugi.yahoo.com"
  }
},
{
  "type": "node",
  "id": 368761027,
  "lat": 35.1428830,
  "lon": 126.9208540,
  "tags": {
    "amenity": "hospital",
    "name": "아이사랑소아정신과 (Aisarangsoa Psychiatric Clinic)",
    "name:en": "Aisarangsoa Psychiatric Clinic",
    "name:ko-Latn": "Aisarangsoajeongsingwa",
    "ncat": "병원",
    "source": "http://kr.open.gugi.yahoo.com"
  }
},
{
  "type": "node",
  "id": 368761114,
  "lat": 35.1434040,
  "lon": 126.9205400,
  "tags": {
    "amenity": "hospital",
    "name": "삼성 정맥류클리닉 (Samseong Jeongmaengnyu Clinic)",
    "name:en": "Samseong Jeongmaengnyu Clinic",
    "name:ko-Latn": "Samseong Jeongmaengnyukeullinik",
    "ncat": "병원",
    "source": "http://kr.open.gugi.yahoo.com"
  }
},
{
  "type": "node",
  "id": 368761130,
  "lat": 35.1537400,
  "lon": 126.9147100,
  "tags": {
    "amenity": "dentist",
    "name": "박애치과의원 (Bakae Dental Clinic)",
    "name:en": "Bakae Dental Clinic",
    "name:ko": "박애치과의원",
    "name:ko-Latn": "Bakaechigwauiwon",
    "ncat": "치과"
  }
},
{
  "type": "node",
  "id": 368761147,
  "lat": 35.1515091,
  "lon": 126.9127837,
  "tags": {
    "amenity": "hospital",
    "name": "문앤문 성형외과",
    "name:en": "Munaenmun Plastic Surgery",
    "name:ko-Latn": "Munaenmun Seonghyeongoegwa",
    "ncat": "병원",
    "source": "http://kr.open.gugi.yahoo.com"
  }
},
{
  "type": "node",
  "id": 368761279,
  "lat": 35.1480500,
  "lon": 126.9128620,
  "tags": {
    "amenity": "hospital",
    "name": "광주피부과 (Gwangju Dermatologic Clinic)",
    "name:en": "Gwangju Dermatologic Clinic",
    "name:ko-Latn": "Gwangjupibugwa",
    "ncat": "병원",
    "source": "http://kr.open.gugi.yahoo.com"
  }
},
{
  "type": "node",
  "id": 368761334,
  "lat": 35.1412043,
  "lon": 126.9212310,
  "tags": {
    "amenity": "hospital",
    "name": "서현메카 성형외과 (Seohyeonmeka Plastic Surgery)",
    "name:en": "Seohyeonmeka Plastic Surgery",
    "name:ko-Latn": "Seohyeonmeka Seonghyeongoegwa",
    "ncat": "병원",
    "source": "http://kr.open.gugi.yahoo.com"
  }
},
{
  "type": "node",
  "id": 368761391,
  "lat": 35.1444500,
  "lon": 126.9234000,
  "tags": {
    "amenity": "dentist",
    "name": "오킴스김광원치과의원 (Okimseugimgwangwon Dental Clinic)",
    "name:en": "Okimseugimgwangwon Dental Clinic",
    "name:ko": "오킴스김광원치과의원",
    "name:ko-Latn": "Okimseugimgwangwonchigwauiwon",
    "ncat": "치과"
  }
},
{
  "type": "node",
  "id": 368761519,
  "lat": 35.1492992,
  "lon": 126.9172393,
  "tags": {
    "amenity": "hospital",
    "name": "미지예피부과",
    "name:en": "Mijiye Dermatologic Clinic",
    "name:ko-Latn": "Mijiyepibugwa",
    "ncat": "병원",
    "source": "http://kr.open.gugi.yahoo.com"
  }
},
{
  "type": "node",
  "id": 368761548,
  "lat": 35.1531252,
  "lon": 126.9138726,
  "tags": {
    "amenity": "hospital",
    "name": "천원당한의원",
    "name:en": "Cheonwondang Oriental Medicine Clinic",
    "name:ko-Latn": "Cheonwondanghanuiwon",
    "ncat": "병원",
    "source": "http://kr.open.gugi.yahoo.com"
  }
},
{
  "type": "node",
  "id": 368761690,
  "lat": 35.1572600,
  "lon": 126.9207700,
  "tags": {
    "amenity": "dentist",
    "name": "이석종치과의원 (Iseokjong Dental Clinic)",
    "name:en": "Iseokjong Dental Clinic",
    "name:ko": "이석종치과의원",
    "name:ko-Latn": "Iseokjongchigwauiwon",
    "ncat": "치과"
  }
},
{
  "type": "node",
  "id": 368761773,
  "lat": 35.1438520,
  "lon": 126.9212580,
  "tags": {
    "amenity": "hospital",
    "name": "푸른안과의원 (Pureun Eye Clinic)",
    "name:en": "Pureun Eye Clinic",
    "name:ko-Latn": "Pureunangwauiwon",
    "ncat": "병원",
    "source": "http://kr.open.gugi.yahoo.com"
  }
},
{
  "type": "node",
  "id": 368761784,
  "lat": 35.1492140,
  "lon": 126.9139770,
  "tags": {
    "amenity": "hospital",
    "name": "권대승성형외과 (Gwondaeseung Plastic Surgery)",
    "name:en": "Gwondaeseung Plastic Surgery",
    "name:ko-Latn": "Gwondaeseungseonghyeongoegwa",
    "ncat": "병원",
    "source": "http://kr.open.gugi.yahoo.com"
  }
},
{
  "type": "node",
  "id": 368761789,
  "lat": 35.1438520,
  "lon": 126.9212580,
  "tags": {
    "amenity": "hospital",
    "name": "최영정신과 학습증진센터 (Choeyeong Psychiatric Hakseupjeungjin Center)",
    "name:en": "Choeyeong Psychiatric Hakseupjeungjin Center",
    "name:ko-Latn": "Choeyeongjeongsingwa Hakseupjeungjinsenteo",
    "ncat": "병원",
    "source": "http://kr.open.gugi.yahoo.com"
  }
},
{
  "type": "node",
  "id": 368761803,
  "lat": 35.1475190,
  "lon": 126.9220440,
  "tags": {
    "amenity": "hospital",
    "name": "유승우피부비뇨기과의원 (Yuseungupibu Urology Clinic)",
    "name:en": "Yuseungupibu Urology Clinic",
    "name:ko-Latn": "Yuseungupibubinyogigwauiwon",
    "ncat": "병원",
    "source": "http://kr.open.gugi.yahoo.com"
  }
},
{
  "type": "node",
  "id": 368761897,
  "lat": 35.1427994,
  "lon": 126.9208530,
  "tags": {
    "amenity": "hospital",
    "name": "아이사랑언어학습상담센터 (Aisarangeoneohakseupsangdam Center)",
    "name:en": "Aisarangeoneohakseupsangdam Center",
    "name:ko-Latn": "Aisarangeoneohakseupsangdamsenteo",
    "ncat": "병원",
    "source": "http://kr.open.gugi.yahoo.com"
  }
},
{
  "type": "node",
  "id": 368761933,
  "lat": 35.1426006,
  "lon": 126.9199888,
  "tags": {
    "amenity": "hospital",
    "name": "베스트신경과병원 (Best Singyeonggwa Hospital)",
    "name:en": "Best Singyeonggwa Hospital",
    "name:ko-Latn": "Beseuteusingyeonggwabyeongwon",
    "ncat": "병원",
    "source": "http://kr.open.gugi.yahoo.com"
  }
},
{
  "type": "node",
  "id": 368762011,
  "lat": 35.1524720,
  "lon": 126.9194760,
  "tags": {
    "amenity": "hospital",
    "name": "중화한의원 (Junghwa Oriental Medicine Clinic)",
    "name:en": "Junghwa Oriental Medicine Clinic",
    "name:ko-Latn": "Junghwahanuiwon",
    "ncat": "병원",
    "source": "http://kr.open.gugi.yahoo.com"
  }
},
{
  "type": "node",
  "id": 368762108,
  "lat": 35.1465820,
  "lon": 126.9181050,
  "tags": {
    "amenity": "hospital",
    "name": "박동균성형외과 (Bakdonggyun Plastic Surgery)",
    "name:en": "Bakdonggyun Plastic Surgery",
    "name:ko-Latn": "Bakdonggyunseonghyeongoegwa",
    "ncat": "병원",
    "source": "http://kr.open.gugi.yahoo.com"
  }
},
{
  "type": "node",
  "id": 368762192,
  "lat": 35.1428830,
  "lon": 126.9208540,
  "tags": {
    "amenity": "hospital",
    "name": "SK 최은정 성형외과 (SK Choeeunjeong Plastic Surgery)",
    "name:en": "SK Choeeunjeong Plastic Surgery",
    "name:ko-Latn": "SK Choeeunjeong Seonghyeongoegwa",
    "ncat": "병원",
    "source": "http://kr.open.gugi.yahoo.com"
  }
},
{
  "type": "node",
  "id": 368762264,
  "lat": 35.1443366,
  "lon": 126.9272064,
  "tags": {
    "amenity": "dentist",
    "name": "조대부속병원예방치과 (Jodaebusok Hospital Yebang Dental Clinic)",
    "name:en": "Chosun Dental Hospital",
    "name:ja": "朝鮮大付属病院予防歯科",
    "name:ko": "조대부속병원예방치과",
    "name:ko-Latn": "Jodaebusokbyeongwonyebangchigwa",
    "ncat": "치과"
  }
},
{
  "type": "node",
  "id": 368762314,
  "lat": 35.1524560,
  "lon": 126.9166450,
  "tags": {
    "amenity": "hospital",
    "name": "김승완외과병원",
    "name:en": "Gimseungwanoegwa Hospital",
    "name:ko-Latn": "Gimseungwanoegwabyeongwon",
    "ncat": "병원",
    "source": "http://kr.open.gugi.yahoo.com"
  }
},
{
  "type": "node",
  "id": 368762339,
  "lat": 35.1517830,
  "lon": 126.9170050,
  "tags": {
    "amenity": "hospital",
    "name": "김정형외과병원 (Gimjeonghyeongoegwa Hospital)",
    "name:en": "Gimjeonghyeongoegwa Hospital",
    "name:ko-Latn": "Gimjeonghyeongoegwabyeongwon",
    "ncat": "병원",
    "source": "http://kr.open.gugi.yahoo.com"
  }
},
{
  "type": "node",
  "id": 368762403,
  "lat": 35.1591682,
  "lon": 126.9112855,
  "tags": {
    "amenity": "hospital",
    "name": "호성병원 (Hoseong Hospital)",
    "name:en": "Hoseong Hospital",
    "name:ko-Latn": "Hoseongbyeongwon",
    "ncat": "병원",
    "source": "http://kr.open.gugi.yahoo.com"
  }
},
{
  "type": "node",
  "id": 368762622,
  "lat": 35.1436310,
  "lon": 126.9207780,
  "tags": {
    "amenity": "hospital",
    "name": "우리난청 오티콘보청기 광주지점 (Urinancheong Otikonbocheonggi Gwangjujijeom)",
    "name:en": "Urinancheong Otikonbocheonggi Gwangjujijeom",
    "name:ko-Latn": "Urinancheong Otikonbocheonggi Gwangjujijeom",
    "ncat": "병원",
    "source": "http://kr.open.gugi.yahoo.com"
  }
},
{
  "type": "node",
  "id": 368762683,
  "lat": 35.1512322,
  "lon": 126.9141554,
  "tags": {
    "amenity": "dentist",
    "name": "광산치과 (Gwangsan Dental Clinic)",
    "name:en": "Gwangsan Dental Clinic",
    "name:ko": "광산치과",
    "name:ko-Latn": "Gwangsanchigwa",
    "ncat": "치과"
  }
},
{
  "type": "node",
  "id": 368762696,
  "lat": 35.1489500,
  "lon": 126.9170900,
  "tags": {
    "amenity": "dentist",
    "name": "대한치과의원 (Daehan Dental Clinic)",
    "name:en": "Daehan Dental Clinic",
    "name:ko": "대한치과의원",
    "name:ko-Latn": "Daehanchigwauiwon",
    "ncat": "치과"
  }
},
{
  "type": "node",
  "id": 368762734,
  "lat": 35.1516390,
  "lon": 126.9170070,
  "tags": {
    "amenity": "hospital",
    "name": "김병원검진센터 (Gimbyeongwongeomjin Center)",
    "name:en": "Gimbyeongwongeomjin Center",
    "name:ko-Latn": "Gimbyeongwongeomjinsenteo",
    "ncat": "병원",
    "source": "http://kr.open.gugi.yahoo.com"
  }
},
{
  "type": "node",
  "id": 368762739,
  "lat": 35.1447305,
  "lon": 126.9145523,
  "tags": {
    "amenity": "hospital",
    "name": "서남대학교병원",
    "name:en": "Seonam University Hospital",
    "name:ko-Latn": "Seonamdaehakgyobyeongwon",
    "ncat": "병원",
    "source": "http://kr.open.gugi.yahoo.com"
  }
},
{
  "type": "node",
  "id": 368762787,
  "lat": 35.1579440,
  "lon": 126.9194480,
  "tags": {
    "amenity": "hospital",
    "name": "김희철동서한방병원 (Gimhuicheoldongseo Oriental Medicine Hospital)",
    "name:en": "Gimhuicheoldongseo Oriental Medicine Hospital",
    "name:ko-Latn": "Gimhuicheoldongseohanbangbyeongwon",
    "ncat": "병원",
    "source": "http://kr.open.gugi.yahoo.com"
  }
},
{
  "type": "node",
  "id": 368762882,
  "lat": 35.1534537,
  "lon": 126.9162743,
  "tags": {
    "amenity": "hospital",
    "name": "박안과의원",
    "name:en": "Bak Eye Clinic",
    "name:ko-Latn": "Bakangwauiwon",
    "ncat": "병원",
    "source": "http://kr.open.gugi.yahoo.com"
  }
},
{
  "type": "node",
  "id": 368762901,
  "lat": 35.1517210,
  "lon": 126.9161060,
  "tags": {
    "amenity": "hospital",
    "name": "대인제통의원 (Daeinjetong Clinic)",
    "name:en": "Daeinjetong Clinic",
    "name:ko-Latn": "Daeinjetonguiwon",
    "ncat": "병원",
    "source": "http://kr.open.gugi.yahoo.com"
  }
},
{
  "type": "node",
  "id": 368763024,
  "lat": 35.1428280,
  "lon": 126.9208248,
  "tags": {
    "amenity": "hospital",
    "name": "복음내과 (Bokeum Internal Medicine Clinic)",
    "name:en": "Bokeum Internal Medicine Clinic",
    "name:ko-Latn": "Bokeumnaegwa",
    "ncat": "병원",
    "source": "http://kr.open.gugi.yahoo.com"
  }
},
{
  "type": "node",
  "id": 368763061,
  "lat": 35.1491690,
  "lon": 126.9139880,
  "tags": {
    "amenity": "hospital",
    "name": "기찬종피부과의원 (Gichanjong Dermatologic Clinic)",
    "name:en": "Gichanjong Dermatologic Clinic",
    "name:ko-Latn": "Gichanjongpibugwauiwon",
    "ncat": "병원",
    "source": "http://kr.open.gugi.yahoo.com"
  }
},
{
  "type": "node",
  "id": 368763133,
  "lat": 35.1461700,
  "lon": 126.9113100,
  "tags": {
    "amenity": "veterinary",
    "name": "중앙동물병원 (Central Animal Hospital)",
    "name:en": "Central Animal Hospital",
    "name:ko": "중앙동물병원",
    "name:ko-Latn": "Jungangdongmulbyeongwon",
    "ncat": "동물병원"
  }
},
{
  "type": "node",
  "id": 368763158,
  "lat": 35.1439869,
  "lon": 126.9139831,
  "tags": {
    "amenity": "veterinary",
    "name": "희망동물병원 (Huimang Animal Hospital)",
    "name:en": "Huimang Animal Hospital",
    "name:ko": "희망동물병원",
    "name:ko-Latn": "Huimangdongmulbyeongwon",
    "ncat": "동물병원"
  }
},
{
  "type": "node",
  "id": 368763202,
  "lat": 35.1454300,
  "lon": 126.9120400,
  "tags": {
    "amenity": "veterinary",
    "name": "서현동물병원 (Seohyeon Animal Hospital)",
    "name:en": "Seohyeon Animal Hospital",
    "name:ko": "서현동물병원",
    "name:ko-Latn": "Seohyeondongmulbyeongwon",
    "ncat": "동물병원"
  }
},
{
  "type": "node",
  "id": 368763564,
  "lat": 35.1528849,
  "lon": 126.9116339,
  "tags": {
    "amenity": "hospital",
    "name": "애니스킨케어 (Aeniseukinkeeo)",
    "name:en": "Aeniseukinkeeo",
    "name:ko-Latn": "Aeniseukinkeeo",
    "ncat": "병원",
    "source": "http://kr.open.gugi.yahoo.com"
  }
},
{
  "type": "node",
  "id": 368763592,
  "lat": 35.1466880,
  "lon": 126.9178190,
  "tags": {
    "amenity": "hospital",
    "name": "인치바이인치 (Inchibaiinchi)",
    "name:en": "Inchibaiinchi",
    "name:ko-Latn": "Inchibaiinchi",
    "ncat": "병원",
    "source": "http://kr.open.gugi.yahoo.com"
  }
},
{
  "type": "node",
  "id": 368763617,
  "lat": 35.1417870,
  "lon": 126.9208159,
  "tags": {
    "building": "GYM",
    "building:levels": "3",
    "name": "국제유도관",
    "name:en": "International Judo",
    "name:ko": "국제유도관",
    "name:ko-Latn": "International Judo",
    "ncat": "치과"
  }
},
{
  "type": "node",
  "id": 368763755,
  "lat": 35.1501700,
  "lon": 126.9159500,
  "tags": {
    "amenity": "dentist",
    "name": "이성출치과의원",
    "name:en": "Iseongchul Dental Clinic",
    "name:ko": "이성출치과의원",
    "name:ko-Latn": "Iseongchulchigwauiwon",
    "ncat": "치과"
  }
},
{
  "type": "node",
  "id": 368763834,
  "lat": 35.1515200,
  "lon": 126.9195300,
  "tags": {
    "amenity": "dentist",
    "name": "중앙치과 (Central Dental Clinic)",
    "name:en": "Central Dental Clinic",
    "name:ko": "중앙치과",
    "name:ko-Latn": "Jungangchigwa",
    "ncat": "치과"
  }
},
{
  "type": "node",
  "id": 368763904,
  "lat": 35.1457576,
  "lon": 126.9221574,
  "tags": {
    "amenity": "hospital",
    "name": "안치과의원 (An Dental Clinic)",
    "name:en": "An Dental Clinic",
    "name:ko-Latn": "Anchigwauiwon",
    "ncat": "병원",
    "source": "http://kr.open.gugi.yahoo.com"
  }
},
{
  "type": "node",
  "id": 368764183,
  "lat": 35.1428422,
  "lon": 126.9208860,
  "tags": {
    "amenity": "dentist",
    "name": "강치과 (Gang Dental Clinic)",
    "name:en": "Gang Dental Clinic",
    "name:ko": "강치과",
    "name:ko-Latn": "Gangchigwa",
    "ncat": "치과"
  }
},
{
  "type": "node",
  "id": 368764194,
  "lat": 35.1463043,
  "lon": 126.9186132,
  "tags": {
    "amenity": "dentist",
    "name": "김정호치과 (Gimjeongho Dental Clinic)",
    "name:en": "Gimjeongho Dental Clinic",
    "name:ko": "김정호치과",
    "name:ko-Latn": "Gimjeonghochigwa",
    "ncat": "치과"
  }
},
{
  "type": "node",
  "id": 368764199,
  "lat": 35.1526600,
  "lon": 126.9190000,
  "tags": {
    "amenity": "dentist",
    "name": "이성재치과 (Iseongjae Dental Clinic)",
    "name:en": "Iseongjae Dental Clinic",
    "name:ko": "이성재치과",
    "name:ko-Latn": "Iseongjaechigwa",
    "ncat": "치과"
  }
},
{
  "type": "node",
  "id": 368764426,
  "lat": 35.1506800,
  "lon": 126.9251300,
  "tags": {
    "amenity": "dentist",
    "name": "밝은치과의원 (Balgeun Dental Clinic)",
    "name:en": "Balgeun Dental Clinic",
    "name:ko": "밝은치과의원",
    "name:ko-Latn": "Balgeunchigwauiwon",
    "ncat": "치과"
  }
},
{
  "type": "node",
  "id": 368764550,
  "lat": 35.1519439,
  "lon": 126.9131472,
  "tags": {
    "amenity": "dentist",
    "name": "김상균치과의원 (Gimsanggyun Dental Clinic)",
    "name:en": "Gimsanggyun Dental Clinic",
    "name:ko": "김상균치과의원",
    "name:ko-Latn": "Gimsanggyunchigwauiwon",
    "ncat": "치과"
  }
},
{
  "type": "node",
  "id": 368764565,
  "lat": 35.1551800,
  "lon": 126.9131400,
  "tags": {
    "amenity": "dentist",
    "name": "김신도치과 (Gimsindo Dental Clinic)",
    "name:en": "Gimsindo Dental Clinic",
    "name:ko": "김신도치과",
    "name:ko-Latn": "Gimsindochigwa",
    "ncat": "치과"
  }
},
{
  "type": "node",
  "id": 368764741,
  "lat": 35.1449820,
  "lon": 126.9140844,
  "tags": {
    "amenity": "dentist",
    "name": "오명치과의원 (Omyeong Dental Clinic)",
    "name:en": "Omyeong Dental Clinic",
    "name:ko": "오명치과의원",
    "name:ko-Latn": "Omyeongchigwauiwon",
    "ncat": "치과"
  }
},
{
  "type": "node",
  "id": 368764768,
  "lat": 35.1539700,
  "lon": 126.9154800,
  "tags": {
    "amenity": "dentist",
    "name": "호남치과의원 (Honam Dental Clinic)",
    "name:en": "Honam Dental Clinic",
    "name:ko": "호남치과의원",
    "name:ko-Latn": "Honamchigwauiwon",
    "ncat": "치과"
  }
},
{
  "type": "node",
  "id": 368764875,
  "lat": 35.1475200,
  "lon": 126.9220400,
  "tags": {
    "amenity": "dentist",
    "name": "한빛치과의원 (Hanbich Dental Clinic)",
    "name:en": "Hanbich Dental Clinic",
    "name:ko": "한빛치과의원",
    "name:ko-Latn": "Hanbichchigwauiwon",
    "ncat": "치과"
  }
},
{
  "type": "node",
  "id": 368765039,
  "lat": 35.1480600,
  "lon": 126.9128700,
  "tags": {
    "amenity": "dentist",
    "name": "유보영치과 (Yuboyeong Dental Clinic)",
    "name:en": "Yuboyeong Dental Clinic",
    "name:ko": "유보영치과",
    "name:ko-Latn": "Yuboyeongchigwa",
    "ncat": "치과"
  }
},
{
  "type": "node",
  "id": 368765182,
  "lat": 35.1488200,
  "lon": 126.9179200,
  "tags": {
    "amenity": "dentist",
    "name": "문치과의원",
    "name:en": "Mun Dental Clinic",
    "name:ko": "문치과의원",
    "name:ko-Latn": "Munchigwauiwon",
    "ncat": "치과"
  }
},
{
  "type": "node",
  "id": 368765201,
  "lat": 35.1463700,
  "lon": 126.9184200,
  "tags": {
    "amenity": "dentist",
    "name": "김기식치과 (Gimgisik Dental Clinic)",
    "name:en": "Gimgisik Dental Clinic",
    "name:ko": "김기식치과",
    "name:ko-Latn": "Gimgisikchigwa",
    "ncat": "치과"
  }
},
{
  "type": "node",
  "id": 368765391,
  "lat": 35.1504713,
  "lon": 126.9154891,
  "tags": {
    "amenity": "dentist",
    "name": "예인원치과",
    "name:en": "Yeinwon Dental Clinic",
    "name:ko": "예인원치과",
    "name:ko-Latn": "Yeinwonchigwa",
    "ncat": "치과"
  }
},
{
  "type": "node",
  "id": 368765444,
  "lat": 35.1547000,
  "lon": 126.9110900,
  "tags": {
    "amenity": "dentist",
    "name": "허영철치과 (Heoyeongcheol Dental Clinic)",
    "name:en": "Heoyeongcheol Dental Clinic",
    "name:ko": "허영철치과",
    "name:ko-Latn": "Heoyeongcheolchigwa",
    "ncat": "치과"
  }
},
{
  "type": "node",
  "id": 368765465,
  "lat": 35.1491700,
  "lon": 126.9139900,
  "tags": {
    "amenity": "dentist",
    "name": "임금치과 (Imgeum Dental Clinic)",
    "name:en": "Imgeum Dental Clinic",
    "name:ko": "임금치과",
    "name:ko-Latn": "Imgeumchigwa",
    "ncat": "치과"
  }
},
{
  "type": "node",
  "id": 368765864,
  "lat": 35.1532574,
  "lon": 126.9159247,
  "tags": {
    "amenity": "dentist",
    "name": "대인치과",
    "name:en": "Daein Dental Clinic",
    "name:ko": "대인치과",
    "name:ko-Latn": "Daeinchigwa",
    "ncat": "치과"
  }
},
{
  "type": "node",
  "id": 368765963,
  "lat": 35.1542700,
  "lon": 126.9112800,
  "tags": {
    "amenity": "dentist",
    "name": "민들레치과 (Mindeulle Dental Clinic)",
    "name:en": "Mindeulle Dental Clinic",
    "name:ko": "민들레치과",
    "name:ko-Latn": "Mindeullechigwa",
    "ncat": "치과"
  }
},
{
  "type": "node",
  "id": 368766245,
  "lat": 35.1518000,
  "lon": 126.9260300,
  "tags": {
    "amenity": "dentist",
    "name": "나광천치과 (Nagwangcheon Dental Clinic)",
    "name:en": "Nagwangcheon Dental Clinic",
    "name:ko": "나광천치과",
    "name:ko-Latn": "Nagwangcheonchigwa",
    "ncat": "치과"
  }
},
{
  "type": "node",
  "id": 368766361,
  "lat": 35.1509700,
  "lon": 126.9120200,
  "tags": {
    "amenity": "dentist",
    "name": "장기영치과의원 (Janggiyeong Dental Clinic)",
    "name:en": "Janggiyeong Dental Clinic",
    "name:ko": "장기영치과의원",
    "name:ko-Latn": "Janggiyeongchigwauiwon",
    "ncat": "치과"
  }
},
{
  "type": "node",
  "id": 368766457,
  "lat": 35.1526457,
  "lon": 126.9112799,
  "tags": {
    "amenity": "dentist",
    "name": "조진우치과 (Jojinu Dental Clinic)",
    "name:en": "Jojinu Dental Clinic",
    "name:ko": "조진우치과",
    "name:ko-Latn": "Jojinuchigwa",
    "ncat": "치과"
  }
},
{
  "type": "node",
  "id": 368766594,
  "lat": 35.1460100,
  "lon": 126.9177400,
  "tags": {
    "amenity": "dentist",
    "name": "임수령치과의원 (Imsuryeong Dental Clinic)",
    "name:en": "Imsuryeong Dental Clinic",
    "name:ko": "임수령치과의원",
    "name:ko-Latn": "Imsuryeongchigwauiwon",
    "ncat": "치과"
  }
},
{
  "type": "node",
  "id": 368766729,
  "lat": 35.1469700,
  "lon": 126.9185700,
  "tags": {
    "amenity": "dentist",
    "name": "박용근치과의원 (Bakyonggeun Dental Clinic)",
    "name:en": "Bakyonggeun Dental Clinic",
    "name:ko": "박용근치과의원",
    "name:ko-Latn": "Bakyonggeunchigwauiwon",
    "ncat": "치과"
  }
},
{
  "type": "node",
  "id": 368766982,
  "lat": 35.1494450,
  "lon": 126.9186380,
  "tags": {
    "amenity": "hospital",
    "name": "가필 아이디",
    "name:en": "Gapil Aidi",
    "name:ko-Latn": "Gapil Aidi",
    "ncat": "병원",
    "source": "http://kr.open.gugi.yahoo.com"
  }
},
{
  "type": "node",
  "id": 368767024,
  "lat": 35.1460100,
  "lon": 126.9177400,
  "tags": {
    "amenity": "dentist",
    "name": "이행복한치과 (Ihaengbokhan Dental Clinic)",
    "name:en": "Ihaengbokhan Dental Clinic",
    "name:ko": "이행복한치과",
    "name:ko-Latn": "Ihaengbokhanchigwa",
    "ncat": "치과"
  }
},
{
  "type": "node",
  "id": 368767097,
  "lat": 35.1531450,
  "lon": 126.9150770,
  "tags": {
    "amenity": "hospital",
    "name": "이진희산부인과",
    "name:en": "Ijinhui Obstetrics & Gynecology Clinic",
    "name:ko-Latn": "Ijinhuisanbuingwa",
    "ncat": "병원",
    "source": "http://kr.open.gugi.yahoo.com"
  }
},
{
  "type": "node",
  "id": 368767177,
  "lat": 35.1569350,
  "lon": 126.9115250,
  "tags": {
    "amenity": "hospital",
    "name": "정찬영내과의원 (Jeongchanyeong Internal Medicine Clinic)",
    "name:en": "Jeongchanyeong Internal Medicine Clinic",
    "name:ko-Latn": "Jeongchanyeongnaegwauiwon",
    "ncat": "병원",
    "source": "http://kr.open.gugi.yahoo.com"
  }
},
{
  "type": "node",
  "id": 368767231,
  "lat": 35.1461040,
  "lon": 126.9180790,
  "tags": {
    "amenity": "hospital",
    "name": "고운세상피부과",
    "name:en": "Gounsesang Dermatologic Clinic",
    "name:ko-Latn": "Gounsesangpibugwa",
    "ncat": "병원",
    "source": "http://kr.open.gugi.yahoo.com"
  }
},
{
  "type": "node",
  "id": 368767240,
  "lat": 35.1426930,
  "lon": 126.9207690,
  "tags": {
    "amenity": "hospital",
    "name": "탑통증의학과의원 (Taptongjeunguihakgwa Clinic)",
    "name:en": "Taptongjeunguihakgwa Clinic",
    "name:ko-Latn": "Taptongjeunguihakgwauiwon",
    "ncat": "병원",
    "source": "http://kr.open.gugi.yahoo.com"
  }
},
{
  "type": "node",
  "id": 368767251,
  "lat": 35.1452000,
  "lon": 126.9161096,
  "tags": {
    "amenity": "hospital",
    "name": "조상구외과",
    "name:en": "Josanggu Surgery",
    "name:ko-Latn": "Josangguoegwa",
    "ncat": "병원",
    "source": "http://kr.open.gugi.yahoo.com"
  }
},
{
  "type": "node",
  "id": 368767271,
  "lat": 35.1422790,
  "lon": 126.9198300,
  "tags": {
    "amenity": "hospital",
    "name": "용주류마티스내과의원 (Yongjuryumatiseu Internal Medicine Clinic)",
    "name:en": "Yongjuryumatiseu Internal Medicine Clinic",
    "name:ko-Latn": "Yongjuryumatiseunaegwauiwon",
    "ncat": "병원",
    "source": "http://kr.open.gugi.yahoo.com"
  }
},
{
  "type": "node",
  "id": 368767276,
  "lat": 35.1552510,
  "lon": 126.9116570,
  "tags": {
    "amenity": "hospital",
    "name": "박승조내과의원 (Bakseungjo Internal Medicine Clinic)",
    "name:en": "Bakseungjo Internal Medicine Clinic",
    "name:ko-Latn": "Bakseungjonaegwauiwon",
    "ncat": "병원",
    "source": "http://kr.open.gugi.yahoo.com"
  }
},
{
  "type": "node",
  "id": 368839691,
  "lat": 35.1422790,
  "lon": 126.9198300,
  "tags": {
    "amenity": "hospital",
    "name": "김용주류마티스내과의원 (Gimyongjuryumatiseu Internal Medicine Clinic)",
    "name:en": "Gimyongjuryumatiseu Internal Medicine Clinic",
    "name:ko-Latn": "Gimyongjuryumatiseunaegwauiwon",
    "ncat": "병원",
    "source": "http://kr.open.gugi.yahoo.com"
  }
},
{
  "type": "node",
  "id": 368856470,
  "lat": 35.1485550,
  "lon": 126.9129100,
  "tags": {
    "name": "밀리오레찜질방 (Milliore Jjimjilbang)",
    "name:en": "Milliore Jjimjilbang",
    "name:ko-Latn": "Milliorejjimjilbang",
    "ncat": "찜질방",
    "source": "http://kr.open.gugi.yahoo.com",
    "tourism": "guest_house"
  }
},
{
  "type": "node",
  "id": 368858827,
  "lat": 35.1498294,
  "lon": 126.9174204,
  "tags": {
    "leisure": "sauna",
    "name": "거현사우나",
    "name:en": "Geohyeon Sauna",
    "name:ko-Latn": "Geohyeonsauna",
    "ncat": "사우나",
    "source": "http://kr.open.gugi.yahoo.com"
  }
},
{
  "type": "node",
  "id": 368866641,
  "lat": 35.1535900,
  "lon": 126.9154110,
  "tags": {
    "landuse": "retail",
    "name": "(주)대인수산시장 (Daein Fish Market)",
    "name:en": "Daein Fish Market",
    "name:ko-Latn": "( Ju ) Daeinsusansijang",
    "ncat": "수산시장",
    "shop": "seafood",
    "source": "http://kr.open.gugi.yahoo.com"
  }
},
{
  "type": "node",
  "id": 368866789,
  "lat": 35.1536550,
  "lon": 126.9247730,
  "tags": {
    "landuse": "retail",
    "name": "산수회수산시장 (Sansuhoe Fish Market)",
    "name:en": "Sansuhoe Fish Market",
    "name:ko-Latn": "Sansuhoesusansijang",
    "ncat": "수산시장",
    "shop": "seafood",
    "source": "http://kr.open.gugi.yahoo.com"
  }
},
{
  "type": "node",
  "id": 368868105,
  "lat": 35.1585090,
  "lon": 126.9264811,
  "tags": {
    "landuse": "retail",
    "name": "호남시장 (Honam Market)",
    "name:en": "Honam Market",
    "name:ko-Latn": "Honamsijang",
    "ncat": "시장",
    "shop": "supermarket",
    "source": "http://kr.open.gugi.yahoo.com"
  }
},
{
  "type": "node",
  "id": 368872191,
  "lat": 35.1520220,
  "lon": 126.9206130,
  "tags": {
    "name": "광주교육연구소",
    "name:en": "Gwangjugyoyuk Research Institute",
    "name:ko-Latn": "Gwangjugyoyukyeonguso",
    "ncat": "연구소",
    "source": "http://kr.open.gugi.yahoo.com"
  }
},
{
  "type": "node",
  "id": 368872717,
  "lat": 35.1568180,
  "lon": 126.9115600,
  "tags": {
    "name": "한국건설경영연구소 (Korea Geonseolgyeongyeong Research Institute)",
    "name:en": "Korea Geonseolgyeongyeong Research Institute",
    "name:ko-Latn": "Hangukgeonseolgyeongyeongyeonguso",
    "ncat": "연구소",
    "source": "http://kr.open.gugi.yahoo.com"
  }
},
{
  "type": "node",
  "id": 368873752,
  "lat": 35.1475940,
  "lon": 126.9224380,
  "tags": {
    "name": "21세기경제연구소 (21 Segigyeongje Research Institute)",
    "name:en": "21 Segigyeongje Research Institute",
    "name:ko-Latn": "21 Segigyeongjeyeonguso",
    "ncat": "연구소",
    "source": "http://kr.open.gugi.yahoo.com"
  }
},
{
  "type": "node",
  "id": 368873857,
  "lat": 35.1475940,
  "lon": 126.9224380,
  "tags": {
    "name": "(재단)21세기경제연구소 (21 Segigyeongje Research Institute)",
    "name:en": "21 Segigyeongje Research Institute",
    "name:ko-Latn": "( Jaedan )21 Segigyeongjeyeonguso",
    "ncat": "연구소",
    "source": "http://kr.open.gugi.yahoo.com"
  }
},
{
  "type": "node",
  "id": 368876903,
  "lat": 35.1554490,
  "lon": 126.9116990,
  "tags": {
    "amenity": "post_office",
    "name": "북동우체국 (Bukdong Post Office)",
    "name:en": "Bukdong Post Office",
    "name:ko-Latn": "Bukdongucheguk",
    "ncat": "우체국",
    "source": "http://kr.open.gugi.yahoo.com"
  }
},
{
  "type": "node",
  "id": 368876912,
  "lat": 35.1414063,
  "lon": 126.9210637,
  "tags": {
    "amenity": "post_office",
    "name": "학동우체국 (Hakdong Post Office)",
    "name:en": "Hakdong Post Office",
    "name:ko-Latn": "Hakdongucheguk",
    "ncat": "우체국",
    "source": "http://kr.open.gugi.yahoo.com"
  }
},
{
  "type": "node",
  "id": 368876915,
  "lat": 35.1550040,
  "lon": 126.9203100,
  "tags": {
    "amenity": "post_office",
    "name": "계림우체국 (Gyerim Post Office)",
    "name:en": "Gyerim Post Office",
    "name:ko-Latn": "Gyerimucheguk",
    "ncat": "우체국",
    "source": "http://kr.open.gugi.yahoo.com"
  }
},
{
  "type": "node",
  "id": 368876980,
  "lat": 35.1475911,
  "lon": 126.9172187,
  "tags": {
    "amenity": "post_office",
    "name": "광주우체국",
    "name:en": "Gwangju Post Office",
    "name:ko-Latn": "Gwangjuucheguk",
    "ncat": "우체국",
    "source": "http://kr.open.gugi.yahoo.com"
  }
},
{
  "type": "node",
  "id": 368886959,
  "lat": 35.1503800,
  "lon": 126.9265510,
  "tags": {
    "amenity": "kindergarten",
    "name": "동명유치원",
    "name:en": "Dongmyeong Kindergarten",
    "name:ko": "동명유치원",
    "name:ko-Latn": "Dongmyeongyuchiwon",
    "ncat": "유치원",
    "source": "http://kr.open.gugi.yahoo.com"
  }
},
{
  "type": "node",
  "id": 368887002,
  "lat": 35.1445564,
  "lon": 126.9206688,
  "tags": {
    "amenity": "kindergarten",
    "name": "소화유치원",
    "name:en": "Sohwa Kindergarten",
    "name:ko-Latn": "Sohwayuchiwon",
    "ncat": "유치원",
    "source": "http://kr.open.gugi.yahoo.com"
  }
},
{
  "type": "node",
  "id": 368887220,
  "lat": 35.1590165,
  "lon": 126.9230801,
  "tags": {
    "amenity": "kindergarten",
    "name": "프란체스카유치원",
    "name:en": "Peurancheseuka Kindergarten",
    "name:ko": "프란치스카유치원",
    "name:ko-Latn": "Peurancheseukayuchiwon",
    "ncat": "유치원",
    "source": "http://kr.open.gugi.yahoo.com"
  }
},
{
  "type": "node",
  "id": 368896013,
  "lat": 35.1490533,
  "lon": 126.9167626,
  "tags": {
    "amenity": "bank",
    "atm": "yes",
    "name": "우리은행 (Uri Bank)",
    "name:en": "Uri Bank",
    "name:ko-Latn": "Urieunhaeng",
    "ncat": "은행",
    "source": "http://kr.open.gugi.yahoo.com"
  }
},
{
  "type": "node",
  "id": 368896059,
  "lat": 35.1523230,
  "lon": 126.9139240,
  "tags": {
    "amenity": "bank",
    "atm": "yes",
    "name": "하나은행",
    "name:en": "Hana Bank",
    "name:ko-Latn": "Hanaeunhaeng",
    "ncat": "은행",
    "source": "http://kr.open.gugi.yahoo.com"
  }
},
{
  "type": "node",
  "id": 368896066,
  "lat": 35.1518452,
  "lon": 126.9123251,
  "tags": {
    "amenity": "bank",
    "atm": "yes",
    "name": "우리은행 (Uri Bank)",
    "name:en": "Uri Bank",
    "name:ko-Latn": "Urieunhaeng",
    "ncat": "은행",
    "source": "http://kr.open.gugi.yahoo.com"
  }
},
{
  "type": "node",
  "id": 368896113,
  "lat": 35.1525773,
  "lon": 126.9179788,
  "tags": {
    "amenity": "bank",
    "atm": "yes",
    "name": "신한은행",
    "name:en": "Sinhan Bank",
    "name:ko-Latn": "Sinhaneunhaeng",
    "ncat": "은행",
    "source": "http://kr.open.gugi.yahoo.com"
  }
},
{
  "type": "node",
  "id": 368896146,
  "lat": 35.1519766,
  "lon": 126.9130631,
  "tags": {
    "amenity": "bank",
    "atm": "yes",
    "name": "한국씨티은행",
    "name:en": "Citybank",
    "name:ko-Latn": "Hangukssitieunhaeng",
    "ncat": "은행",
    "source": "http://kr.open.gugi.yahoo.com"
  }
},
{
  "type": "node",
  "id": 368896161,
  "lat": 35.1477274,
  "lon": 126.9116489,
  "tags": {
    "amenity": "bank",
    "atm": "yes",
    "name": "한국외환은행 (Korea Exchange Bank)",
    "name:en": "Korea Exchange Bank",
    "name:ko-Latn": "Hangukoehwaneunhaeng",
    "ncat": "은행",
    "source": "http://kr.open.gugi.yahoo.com"
  }
},
{
  "type": "node",
  "id": 368896178,
  "lat": 35.1509270,
  "lon": 126.9160070,
  "tags": {
    "amenity": "bank",
    "atm": "yes",
    "name": "창업상호저축은행",
    "ncat": "은행",
    "source": "http://kr.open.gugi.yahoo.com"
  }
},
{
  "type": "node",
  "id": 368896181,
  "lat": 35.1515467,
  "lon": 126.9136519,
  "tags": {
    "amenity": "bank",
    "atm": "yes",
    "name": "광주상호저축은행",
    "name:en": "Gwangju Mutual Saving Bank",
    "name:ko-Latn": "Gwangjusanghojeochukeunhaeng",
    "ncat": "은행",
    "source": "http://kr.open.gugi.yahoo.com"
  }
},
{
  "type": "node",
  "id": 368896184,
  "lat": 35.1506664,
  "lon": 126.9141118,
  "tags": {
    "amenity": "bank",
    "atm": "yes",
    "name": "한국투자저축은행",
    "name:en": "Korea Tuja Saving Bank",
    "name:ko-Latn": "Hanguktujajeochukeunhaeng",
    "ncat": "은행",
    "source": "http://kr.open.gugi.yahoo.com"
  }
},
{
  "type": "node",
  "id": 368896187,
  "lat": 35.1463130,
  "lon": 126.9182740,
  "tags": {
    "amenity": "bank",
    "atm": "yes",
    "name": "창업상호저축은행 (Changeop Mutual Saving Bank)",
    "name:en": "Changeop Mutual Saving Bank",
    "name:ko-Latn": "Changeopsanghojeochukeunhaeng",
    "ncat": "은행",
    "source": "http://kr.open.gugi.yahoo.com"
  }
},
{
  "type": "node",
  "id": 368896195,
  "lat": 35.1487760,
  "lon": 126.9133900,
  "tags": {
    "amenity": "bank",
    "atm": "yes",
    "name": "무등상호저축은행 (Mudeung Mutual Saving Bank)",
    "name:en": "Mudeung Mutual Saving Bank",
    "name:ko-Latn": "Mudeungsanghojeochukeunhaeng",
    "ncat": "은행",
    "source": "http://kr.open.gugi.yahoo.com"
  }
},
{
  "type": "node",
  "id": 368896213,
  "lat": 35.1526598,
  "lon": 126.9119553,
  "tags": {
    "amenity": "bank",
    "atm": "yes",
    "name": "센트럴상호저축은행 (Central Mutual Saving Bank)",
    "name:en": "Central Mutual Saving Bank",
    "name:ko-Latn": "Senteureolsanghojeochukeunhaeng",
    "ncat": "은행",
    "source": "http://kr.open.gugi.yahoo.com"
  }
},
{
  "type": "node",
  "id": 368898598,
  "lat": 35.1499625,
  "lon": 126.9218090,
  "tags": {
    "name": "무형문화재전시관 (Muhyeongmunhwajae Exhibition Hall)",
    "name:en": "Muhyeongmunhwajae Exhibition Hall",
    "name:ko-Latn": "Muhyeongmunhwajaejeonsigwan",
    "ncat": "전시관",
    "source": "http://kr.open.gugi.yahoo.com",
    "tourism": "museum"
  }
},
{
  "type": "node",
  "id": 368901040,
  "lat": 35.1450183,
  "lon": 126.9232554,
  "tags": {
    "amenity": "townhall",
    "name": "서남동주민센터",
    "name:en": "Seonamdong Community Service Center",
    "name:ko-Latn": "Seonamdongjuminsenteo",
    "ncat": "주민센터",
    "source": "http://kr.open.gugi.yahoo.com"
  }
},
{
  "type": "node",
  "id": 368901061,
  "lat": 35.1509620,
  "lon": 126.9250500,
  "tags": {
    "amenity": "townhall",
    "name": "동명동주민센터",
    "name:en": "Dongmyeongdong Community Service Center",
    "name:ko-Latn": "Dongmyeongdongjuminsenteo",
    "ncat": "주민센터",
    "source": "http://kr.open.gugi.yahoo.com"
  }
},
{
  "type": "node",
  "id": 368901173,
  "lat": 35.1578125,
  "lon": 126.9233220,
  "tags": {
    "amenity": "townhall",
    "name": "계림2동주민센터",
    "name:en": "Gyerim 2 Dong Community Service Center",
    "name:ko-Latn": "Gyerim 2 Dongjuminsenteo",
    "ncat": "주민센터",
    "source": "http://kr.open.gugi.yahoo.com"
  }
},
{
  "type": "node",
  "id": 368901176,
  "lat": 35.1582870,
  "lon": 126.9195640,
  "tags": {
    "amenity": "townhall",
    "name": "계림1동주민센터",
    "name:en": "Gyerim 1 Dong Community Service Center",
    "name:ko-Latn": "Gyerim 1 Dongjuminsenteo",
    "ncat": "주민센터",
    "source": "http://kr.open.gugi.yahoo.com"
  }
},
{
  "type": "node",
  "id": 368910148,
  "lat": 35.1564760,
  "lon": 126.9115750,
  "tags": {
    "amenity": "fuel",
    "name": "동화주유소 (Donghwa Gas Station)",
    "name:en": "Donghwa Gas Station",
    "name:ko-Latn": "Donghwajuyuso",
    "ncat": "주유소",
    "source": "http://kr.open.gugi.yahoo.com"
  }
},
{
  "type": "node",
  "id": 368910224,
  "lat": 35.1469750,
  "lon": 126.9177270,
  "tags": {
    "amenity": "fuel",
    "name": "대림주유소 (Daerim Gas Station)",
    "name:en": "Daerim Gas Station",
    "name:ko-Latn": "Daerimjuyuso",
    "ncat": "주유소",
    "source": "http://kr.open.gugi.yahoo.com"
  }
},
{
  "type": "node",
  "id": 368910231,
  "lat": 35.1453962,
  "lon": 126.9136335,
  "tags": {
    "amenity": "fuel",
    "name": "천변주유소 (Cheonbyeon Gas Station)",
    "name:en": "Cheonbyeon Gas Station",
    "name:ko-Latn": "Cheonbyeonjuyuso",
    "ncat": "주유소",
    "source": "http://kr.open.gugi.yahoo.com"
  }
},
{
  "type": "node",
  "id": 368910498,
  "lat": 35.1486380,
  "lon": 126.9221720,
  "tags": {
    "amenity": "fuel",
    "name": "선일주유소",
    "name:en": "Seonil Gas Station",
    "name:ko-Latn": "Seoniljuyuso",
    "ncat": "주유소",
    "source": "http://kr.open.gugi.yahoo.com"
  }
},
{
  "type": "node",
  "id": 368933119,
  "lat": 35.1580329,
  "lon": 126.9244679,
  "tags": {
    "amenity": "school",
    "name": "화교초등학교",
    "name:en": "Hwagyo Elementary School",
    "name:ko-Latn": "Hwagyochodeunghakgyo",
    "ncat": "초등학교",
    "source": "http://kr.open.gugi.yahoo.com"
  }
},
{
  "type": "node",
  "id": 368933232,
  "lat": 35.1559286,
  "lon": 126.9280672,
  "tags": {
    "amenity": "school",
    "name": "광주산수초등학교",
    "name:en": "Gwangjusansu Elementary School",
    "name:ko-Latn": "Gwangjusansuchodeunghakgyo",
    "ncat": "초등학교",
    "source": "http://kr.open.gugi.yahoo.com"
  }
},
{
  "type": "node",
  "id": 368939549,
  "lat": 35.1501487,
  "lon": 126.9233943,
  "tags": {
    "name": "광주축협",
    "name:en": "Gwangju National Livestock Cooperative Federation",
    "name:ko-Latn": "Gwangjuchukhyeop",
    "ncat": "축협",
    "shop": "supermarket",
    "source": "http://kr.open.gugi.yahoo.com"
  }
},
{
  "type": "node",
  "id": 368939558,
  "lat": 35.1480590,
  "lon": 126.9128730,
  "tags": {
    "name": "광주축협 (Gwangju National Livestock Cooperative Federation)",
    "name:en": "Gwangju National Livestock Cooperative Federation",
    "name:ko-Latn": "Gwangjuchukhyeop",
    "ncat": "축협",
    "shop": "supermarket",
    "source": "http://kr.open.gugi.yahoo.com"
  }
},
{
  "type": "node",
  "id": 368948835,
  "lat": 35.1480490,
  "lon": 126.9127520,
  "tags": {
    "name": "24편의점 (24 Convenience Store)",
    "name:en": "24 Convenience Store",
    "name:ko-Latn": "24 Pyeonuijeom",
    "ncat": "편의점",
    "shop": "convenience",
    "source": "http://kr.open.gugi.yahoo.com"
  }
},
{
  "type": "node",
  "id": 368948846,
  "lat": 35.1440300,
  "lon": 126.9240990,
  "tags": {
    "name": "CU",
    "name:en": "CU",
    "name:ko-Latn": "Beullupyeonuijeom",
    "ncat": "편의점",
    "shop": "convenience",
    "source": "http://kr.open.gugi.yahoo.com"
  }
},
{
  "type": "node",
  "id": 368952362,
  "lat": 35.1442779,
  "lon": 126.9154169,
  "tags": {
    "name": "히딩크콘티넨탈관광호텔",
    "name:en": "Hidingkeu Continental Tourist Hotel",
    "name:ko-Latn": "Hidingkeukontinentalgwangwanghotel",
    "ncat": "호텔",
    "source": "http://kr.open.gugi.yahoo.com",
    "tourism": "hotel"
  }
},
{
  "type": "node",
  "id": 368952390,
  "lat": 35.1512156,
  "lon": 126.9263278,
  "tags": {
    "name": "그래미장호텔 (Geuraemijang Hotel)",
    "name:en": "Geuraemijang Hotel",
    "name:ko-Latn": "Geuraemijanghotel",
    "ncat": "호텔",
    "source": "http://kr.open.gugi.yahoo.com",
    "tourism": "hotel"
  }
},
{
  "type": "node",
  "id": 368952394,
  "lat": 35.1442590,
  "lon": 126.9153480,
  "tags": {
    "name": "히딩크호텔",
    "name:en": "Hidingkeu Hotel",
    "name:ko-Latn": "Hidingkeuhotel",
    "ncat": "호텔",
    "source": "http://kr.open.gugi.yahoo.com",
    "tourism": "hotel"
  }
},
{
  "type": "node",
  "id": 368952396,
  "lat": 35.1474610,
  "lon": 126.9145380,
  "tags": {
    "name": "(주)파레스관광호텔 (Pareseu Tourist Hotel)",
    "name:en": "Pareseu Tourist Hotel",
    "name:ko-Latn": "( Ju ) Pareseugwangwanghotel",
    "ncat": "호텔",
    "source": "http://kr.open.gugi.yahoo.com",
    "tourism": "hotel"
  }
},
{
  "type": "node",
  "id": 414681466,
  "lat": 35.1544966,
  "lon": 126.9207753,
  "tags": {
    "name": "계림오거리 (Gyerimogeori)",
    "name:en": "Gyerimogeori",
    "name:ko-Latn": "Gyerimogeori",
    "ncat": "교차로및지명",
    "source": "mp2osm"
  }
},
{
  "type": "node",
  "id": 414681482,
  "lat": 35.1558717,
  "lon": 126.9123513,
  "tags": {
    "name": "대인교차로 (Daeingyocharo)",
    "name:en": "Daeingyocharo",
    "name:ko-Latn": "Daeingyocharo",
    "ncat": "교차로및지명",
    "source": "mp2osm"
  }
},
{
  "type": "node",
  "id": 414681485,
  "lat": 35.1440508,
  "lon": 126.9258637,
  "tags": {
    "highway": "traffic_signals",
    "name": "조선대입구 (Joseondae Entrance)",
    "name:en": "Joseondae Entrance",
    "name:ko-Latn": "Joseondaeipgu",
    "ncat": "교차로및지명",
    "source": "mp2osm",
    "traffic_signals": "signal"
  }
},
{
  "type": "node",
  "id": 414681760,
  "lat": 35.1425445,
  "lon": 126.9205749,
  "tags": {
    "name": "전대의대앞 (Jeondaeuidae Front)",
    "name:en": "Jeondaeuidae Front",
    "name:ko-Latn": "Jeondaeuidaeap",
    "ncat": "교차로및지명",
    "source": "mp2osm"
  }
},
{
  "type": "node",
  "id": 415146339,
  "lat": 35.1509106,
  "lon": 126.9151634,
  "tags": {
    "name": "금남로4가",
    "name:en": "Geumnamno 4-ga",
    "name:ja": "錦南路4街",
    "name:ko": "금남로4가",
    "name:ko-Latn": "Geumnamno 4(sa)-ga",
    "ncat": "교차로및지명",
    "place": "village",
    "source": "mp2osm"
  }
},
{
  "type": "node",
  "id": 415146340,
  "lat": 35.1513336,
  "lon": 126.9111053,
  "tags": {
    "name": "충장로5가",
    "name:en": "Chungjangno 5(o)-ga",
    "name:ko": "충장로5가",
    "name:ko-Latn": "Chungjangno 5(o)-ga",
    "ncat": "교차로및지명",
    "place": "village",
    "source": "mp2osm"
  }
},
{
  "type": "node",
  "id": 415146341,
  "lat": 35.1487619,
  "lon": 126.9174897,
  "tags": {
    "name": "금남로2가",
    "name:en": "Geumnamno 2-ga",
    "name:ja": "錦南路2街",
    "name:ko": "금남로2가",
    "name:ko-Latn": "Geumnamno 2(i)-ga",
    "ncat": "교차로및지명",
    "place": "village",
    "source": "mp2osm"
  }
},
{
  "type": "node",
  "id": 415146342,
  "lat": 35.1498175,
  "lon": 126.9162018,
  "tags": {
    "name": "금남로3가",
    "name:en": "Geumnamno 3-ga",
    "name:ja": "錦南路3街",
    "name:ko": "금남로3가",
    "name:ko-Latn": "Geumnamno 3(sam)-ga",
    "ncat": "교차로및지명",
    "place": "village",
    "source": "mp2osm"
  }
},
{
  "type": "node",
  "id": 415146343,
  "lat": 35.1506767,
  "lon": 126.9183969,
  "tags": {
    "name": "궁동",
    "name:en": "Gung-dong",
    "name:ko": "궁동",
    "name:ko-Latn": "Gung-dong",
    "ncat": "교차로및지명",
    "place": "village",
    "source": "mp2osm"
  }
},
{
  "type": "node",
  "id": 415146344,
  "lat": 35.1540380,
  "lon": 126.9153860,
  "tags": {
    "name": "대인동",
    "name:en": "Daein-dong",
    "name:ko": "대인동",
    "name:ko-Latn": "Daein-dong",
    "ncat": "교차로및지명",
    "place": "village",
    "source": "mp2osm"
  }
},
{
  "type": "node",
  "id": 415146345,
  "lat": 35.1487432,
  "lon": 126.9233456,
  "tags": {
    "name": "장동",
    "name:en": "Jang-dong",
    "name:ko": "장동",
    "name:ko-Latn": "Jang-dong",
    "ncat": "교차로및지명",
    "place": "village",
    "source": "mp2osm"
  }
},
{
  "type": "node",
  "id": 415146348,
  "lat": 35.1527300,
  "lon": 126.9124100,
  "tags": {
    "name": "금남로5가",
    "name:en": "Geumnamno 5-ga",
    "name:ja": "錦南路5街",
    "name:ko": "금남로5가",
    "name:ko-Latn": "Geumnamno 5(o)-ga",
    "ncat": "교차로및지명",
    "place": "village",
    "source": "mp2osm"
  }
},
{
  "type": "node",
  "id": 415146350,
  "lat": 35.1495194,
  "lon": 126.9135039,
  "tags": {
    "name": "충장로4가",
    "name:en": "Chungjangno 4-ga",
    "name:ko": "충장로4가",
    "name:ko-Latn": "Chungjangno 4(sa)-ga",
    "ncat": "교차로및지명",
    "place": "village",
    "source": "mp2osm"
  }
},
{
  "type": "node",
  "id": 415146351,
  "lat": 35.1596403,
  "lon": 126.9208387,
  "tags": {
    "name": "계림동",
    "name:en": "Gyerim-dong",
    "name:ko": "계림동",
    "name:ko-Latn": "Gyerim-dong",
    "ncat": "교차로및지명",
    "place": "village",
    "source": "mp2osm"
  }
},
{
  "type": "node",
  "id": 415146352,
  "lat": 35.1441195,
  "lon": 126.9202003,
  "tags": {
    "name": "남동",
    "name:en": "Nam-dong",
    "name:ja": "南洞",
    "name:ko": "남동",
    "name:ko-Latn": "Nam-dong",
    "ncat": "교차로및지명",
    "place": "village",
    "source": "mp2osm"
  }
},
{
  "type": "node",
  "id": 415146353,
  "lat": 35.1432121,
  "lon": 126.9177517,
  "tags": {
    "name": "금동",
    "name:en": "Geum-dong",
    "name:ko": "금동",
    "name:ko-Latn": "Geum-dong",
    "ncat": "교차로및지명",
    "place": "village",
    "source": "mp2osm"
  }
},
{
  "type": "node",
  "id": 415146354,
  "lat": 35.1473715,
  "lon": 126.9155698,
  "tags": {
    "name": "황금동",
    "name:en": "Hwanggeum-dong",
    "name:ko": "황금동",
    "name:ko-Latn": "Hwanggeum-dong",
    "ncat": "교차로및지명",
    "place": "village",
    "source": "mp2osm"
  }
},
{
  "type": "node",
  "id": 415146355,
  "lat": 35.1488881,
  "lon": 126.9152193,
  "tags": {
    "name": "충장로3가",
    "name:en": "Chungjangno 3-ga",
    "name:ko": "충장로3가",
    "name:ko-Latn": "Chungjangno 3(sam)-ga",
    "ncat": "교차로및지명",
    "place": "village",
    "source": "mp2osm"
  }
},
{
  "type": "node",
  "id": 415146356,
  "lat": 35.1488990,
  "lon": 126.9204811,
  "tags": {
    "name": "대의동",
    "name:en": "Daeui-dong",
    "name:ko": "대의동",
    "name:ko-Latn": "Daeui-dong",
    "ncat": "교차로및지명",
    "place": "village",
    "source": "mp2osm"
  }
},
{
  "type": "node",
  "id": 415146357,
  "lat": 35.1477213,
  "lon": 126.9191115,
  "tags": {
    "name": "금남로1가",
    "name:en": "Geumnamno 1-ga",
    "name:ja": "錦南路1街",
    "name:ko": "금남로1가",
    "name:ko-Latn": "Geumnamno 1(il)-ga",
    "ncat": "교차로및지명",
    "place": "village",
    "source": "mp2osm"
  }
},
{
  "type": "node",
  "id": 415146359,
  "lat": 35.1476719,
  "lon": 126.9127685,
  "tags": {
    "name": "호남동",
    "name:en": "Honam-dong",
    "name:ko": "호남동",
    "name:ko-Latn": "Honam-dong",
    "ncat": "교차로및지명",
    "place": "village",
    "source": "mp2osm"
  }
},
{
  "type": "node",
  "id": 415146360,
  "lat": 35.1456072,
  "lon": 126.9149779,
  "tags": {
    "name": "불로동",
    "name:en": "Bullo-dong",
    "name:ko": "불로동",
    "name:ko-Latn": "Bullo-dong",
    "ncat": "교차로및지명",
    "place": "village",
    "source": "mp2osm"
  }
},
{
  "type": "node",
  "id": 415146361,
  "lat": 35.1471811,
  "lon": 126.9177974,
  "tags": {
    "name": "충장로1가",
    "name:en": "Chungjangno 1-ga",
    "name:ko": "충장로1가",
    "name:ko-Latn": "Chungjangno 1(il)-ga",
    "ncat": "교차로및지명",
    "place": "village",
    "source": "mp2osm"
  }
},
{
  "type": "node",
  "id": 415146362,
  "lat": 35.1479538,
  "lon": 126.9165893,
  "tags": {
    "name": "충장로2가",
    "name:en": "Chungjangno 2-ga",
    "name:ko": "충장로2가",
    "name:ko-Latn": "Chungjangno 2(i)-ga",
    "ncat": "교차로및지명",
    "place": "village",
    "source": "mp2osm"
  }
},
{
  "type": "node",
  "id": 415146363,
  "lat": 35.1435987,
  "lon": 126.9126341,
  "tags": {
    "name": "사동",
    "name:en": "Sa-dong",
    "name:ko": "사동",
    "name:ko-Latn": "Sa-dong",
    "ncat": "교차로및지명",
    "place": "village",
    "source": "mp2osm"
  }
},
{
  "type": "node",
  "id": 415146372,
  "lat": 35.1462577,
  "lon": 126.9229636,
  "tags": {
    "name": "동구",
    "name:en": "Dong-gu",
    "name:ja": "東区",
    "name:ko-Latn": "Dong-gu",
    "name:zh": "東区",
    "ncat": "교차로및지명",
    "place": "county",
    "source": "mp2osm"
  }
},
{
  "type": "node",
  "id": 415146374,
  "lat": 35.1506034,
  "lon": 126.9253083,
  "tags": {
    "name": "동명동",
    "name:en": "Dongmyeong-dong",
    "name:ko": "동명동",
    "name:ko-Latn": "Dongmyeong-dong",
    "ncat": "교차로및지명",
    "place": "village",
    "source": "mp2osm"
  }
},
{
  "type": "node",
  "id": 415146375,
  "lat": 35.1425263,
  "lon": 126.9289970,
  "tags": {
    "name": "서석동",
    "name:en": "Seoseok-dong",
    "name:ko": "서석동",
    "name:ko-Latn": "Seoseok-dong",
    "ncat": "교차로및지명",
    "place": "village",
    "source": "mp2osm"
  }
},
{
  "type": "node",
  "id": 436486781,
  "lat": 35.1424826,
  "lon": 126.9205174,
  "tags": {
    "highway": "traffic_signals"
  }
},
{
  "type": "node",
  "id": 436486782,
  "lat": 35.1447600,
  "lon": 126.9194900
},
{
  "type": "node",
  "id": 436486783,
  "lat": 35.1460149,
  "lon": 126.9189444
},
{
  "type": "node",
  "id": 436486784,
  "lat": 35.1464332,
  "lon": 126.9187883
},
{
  "type": "node",
  "id": 436486785,
  "lat": 35.1467906,
  "lon": 126.9186422
},
{
  "type": "node",
  "id": 436486786,
  "lat": 35.1478842,
  "lon": 126.9187410,
  "tags": {
    "highway": "traffic_signals"
  }
},
{
  "type": "node",
  "id": 436486787,
  "lat": 35.1492243,
  "lon": 126.9167790
},
{
  "type": "node",
  "id": 436486788,
  "lat": 35.1504900,
  "lon": 126.9148800
},
{
  "type": "node",
  "id": 436486789,
  "lat": 35.1510600,
  "lon": 126.9140800
},
{
  "type": "node",
  "id": 436486791,
  "lat": 35.1526800,
  "lon": 126.9116000
},
{
  "type": "node",
  "id": 436535492,
  "lat": 35.1469399,
  "lon": 126.9276550
},
{
  "type": "node",
  "id": 436804408,
  "lat": 35.1479409,
  "lon": 126.9103840
},
{
  "type": "node",
  "id": 436804409,
  "lat": 35.1482400,
  "lon": 126.9110100
},
{
  "type": "node",
  "id": 436816320,
  "lat": 35.1542047,
  "lon": 126.9298094
},
{
  "type": "node",
  "id": 436816323,
  "lat": 35.1540300,
  "lon": 126.9288200
},
{
  "type": "node",
  "id": 436816325,
  "lat": 35.1538400,
  "lon": 126.9276000
},
{
  "type": "node",
  "id": 436816327,
  "lat": 35.1538207,
  "lon": 126.9272675
},
{
  "type": "node",
  "id": 436816328,
  "lat": 35.1538100,
  "lon": 126.9270700
},
{
  "type": "node",
  "id": 436816330,
  "lat": 35.1537934,
  "lon": 126.9257871
},
{
  "type": "node",
  "id": 436816332,
  "lat": 35.1538049,
  "lon": 126.9248866
},
{
  "type": "node",
  "id": 436816334,
  "lat": 35.1538700,
  "lon": 126.9245400
},
{
  "type": "node",
  "id": 436816335,
  "lat": 35.1540900,
  "lon": 126.9240500
},
{
  "type": "node",
  "id": 436816337,
  "lat": 35.1542600,
  "lon": 126.9236000
},
{
  "type": "node",
  "id": 436816339,
  "lat": 35.1543800,
  "lon": 126.9232100
},
{
  "type": "node",
  "id": 436816340,
  "lat": 35.1544500,
  "lon": 126.9228500
},
{
  "type": "node",
  "id": 436816342,
  "lat": 35.1545100,
  "lon": 126.9225100
},
{
  "type": "node",
  "id": 436816344,
  "lat": 35.1545330,
  "lon": 126.9219567
},
{
  "type": "node",
  "id": 436816346,
  "lat": 35.1544800,
  "lon": 126.9213400
},
{
  "type": "node",
  "id": 436816350,
  "lat": 35.1546700,
  "lon": 126.9204900
},
{
  "type": "node",
  "id": 436816351,
  "lat": 35.1550165,
  "lon": 126.9200399
},
{
  "type": "node",
  "id": 436816353,
  "lat": 35.1565590,
  "lon": 126.9179494
},
{
  "type": "node",
  "id": 436816358,
  "lat": 35.1587700,
  "lon": 126.9151200
},
{
  "type": "node",
  "id": 436816360,
  "lat": 35.1589900,
  "lon": 126.9148300
},
{
  "type": "node",
  "id": 436816362,
  "lat": 35.1592631,
  "lon": 126.9138406
},
{
  "type": "node",
  "id": 436816364,
  "lat": 35.1594514,
  "lon": 126.9131946
},
{
  "type": "node",
  "id": 436816943,
  "lat": 35.1548100,
  "lon": 126.9213400
},
{
  "type": "node",
  "id": 436816944,
  "lat": 35.1552200,
  "lon": 126.9219200
},
{
  "type": "node",
  "id": 436816945,
  "lat": 35.1562400,
  "lon": 126.9228200
},
{
  "type": "node",
  "id": 436816946,
  "lat": 35.1565167,
  "lon": 126.9229982
},
{
  "type": "node",
  "id": 436824579,
  "lat": 35.1500600,
  "lon": 126.9105800
},
{
  "type": "node",
  "id": 436824580,
  "lat": 35.1515700,
  "lon": 126.9123200
},
{
  "type": "node",
  "id": 436824587,
  "lat": 35.1543800,
  "lon": 126.9155200
},
{
  "type": "node",
  "id": 436824589,
  "lat": 35.1552605,
  "lon": 126.9165300
},
{
  "type": "node",
  "id": 436824595,
  "lat": 35.1574765,
  "lon": 126.9190573
},
{
  "type": "node",
  "id": 436824597,
  "lat": 35.1585071,
  "lon": 126.9202571
},
{
  "type": "node",
  "id": 436824599,
  "lat": 35.1586073,
  "lon": 126.9205400
},
{
  "type": "node",
  "id": 436826123,
  "lat": 35.1432660,
  "lon": 126.9151491
},
{
  "type": "node",
  "id": 436826125,
  "lat": 35.1435900,
  "lon": 126.9155700
},
{
  "type": "node",
  "id": 436826869,
  "lat": 35.1414137,
  "lon": 126.9177861
},
{
  "type": "node",
  "id": 436826870,
  "lat": 35.1419457,
  "lon": 126.9191387
},
{
  "type": "node",
  "id": 436836570,
  "lat": 35.1547824,
  "lon": 126.9113015
},
{
  "type": "node",
  "id": 436836571,
  "lat": 35.1558100,
  "lon": 126.9124200
},
{
  "type": "node",
  "id": 436836572,
  "lat": 35.1559100,
  "lon": 126.9125000
},
{
  "type": "node",
  "id": 436836574,
  "lat": 35.1583500,
  "lon": 126.9134900
},
{
  "type": "node",
  "id": 436837211,
  "lat": 35.1446100,
  "lon": 126.9245600
},
{
  "type": "node",
  "id": 436837212,
  "lat": 35.1456900,
  "lon": 126.9221200
},
{
  "type": "node",
  "id": 436837215,
  "lat": 35.1457442,
  "lon": 126.9218777,
  "tags": {
    "highway": "traffic_signals"
  }
},
{
  "type": "node",
  "id": 436837356,
  "lat": 35.1494857,
  "lon": 126.9221640,
  "tags": {
    "highway": "traffic_signals",
    "traffic_signals": "signal"
  }
},
{
  "type": "node",
  "id": 436837359,
  "lat": 35.1518622,
  "lon": 126.9241033
},
{
  "type": "node",
  "id": 436837361,
  "lat": 35.1529500,
  "lon": 126.9244100
},
{
  "type": "node",
  "id": 436837362,
  "lat": 35.1531365,
  "lon": 126.9244513
},
{
  "type": "node",
  "id": 436837364,
  "lat": 35.1537143,
  "lon": 126.9246087
},
{
  "type": "node",
  "id": 436837365,
  "lat": 35.1538414,
  "lon": 126.9246473
},
{
  "type": "node",
  "id": 436837379,
  "lat": 35.1510214,
  "lon": 126.9282252
},
{
  "type": "node",
  "id": 436837380,
  "lat": 35.1510577,
  "lon": 126.9278496
},
{
  "type": "node",
  "id": 436837383,
  "lat": 35.1515800,
  "lon": 126.9254900
},
{
  "type": "node",
  "id": 436842457,
  "lat": 35.1584900,
  "lon": 126.9278500
},
{
  "type": "node",
  "id": 436842458,
  "lat": 35.1599900,
  "lon": 126.9262800
},
{
  "type": "node",
  "id": 436851212,
  "lat": 35.1592069,
  "lon": 126.9252433
},
{
  "type": "node",
  "id": 436853807,
  "lat": 35.1430500,
  "lon": 126.9219900
},
{
  "type": "node",
  "id": 436853808,
  "lat": 35.1439100,
  "lon": 126.9240900
},
{
  "type": "node",
  "id": 436853809,
  "lat": 35.1439400,
  "lon": 126.9241400
},
{
  "type": "node",
  "id": 436853894,
  "lat": 35.1474104,
  "lon": 126.9265229
},
{
  "type": "node",
  "id": 436854075,
  "lat": 35.1447938,
  "lon": 126.9140848
},
{
  "type": "node",
  "id": 436854076,
  "lat": 35.1448530,
  "lon": 126.9142743
},
{
  "type": "node",
  "id": 436854077,
  "lat": 35.1458900,
  "lon": 126.9165900
},
{
  "type": "node",
  "id": 436857599,
  "lat": 35.1563600,
  "lon": 126.9106100
},
{
  "type": "node",
  "id": 436860871,
  "lat": 35.1410977,
  "lon": 126.9171750
},
{
  "type": "node",
  "id": 436860899,
  "lat": 35.1402500,
  "lon": 126.9214300
},
{
  "type": "node",
  "id": 436860900,
  "lat": 35.1405600,
  "lon": 126.9220300
},
{
  "type": "node",
  "id": 436861130,
  "lat": 35.1403187,
  "lon": 126.9156997,
  "tags": {
    "direction": "anticlockwise",
    "highway": "mini_roundabout"
  }
},
{
  "type": "node",
  "id": 436866951,
  "lat": 35.1564428,
  "lon": 126.9238098
},
{
  "type": "node",
  "id": 436869737,
  "lat": 35.1481686,
  "lon": 126.9242944
},
{
  "type": "node",
  "id": 436869738,
  "lat": 35.1493377,
  "lon": 126.9223565
},
{
  "type": "node",
  "id": 436871727,
  "lat": 35.1435200,
  "lon": 126.9209400
},
{
  "type": "node",
  "id": 436871730,
  "lat": 35.1479991,
  "lon": 126.9219365
},
{
  "type": "node",
  "id": 436871733,
  "lat": 35.1485440,
  "lon": 126.9219695
},
{
  "type": "node",
  "id": 436871734,
  "lat": 35.1493211,
  "lon": 126.9221138,
  "tags": {
    "crossing": "zebra",
    "highway": "crossing"
  }
},
{
  "type": "node",
  "id": 436871737,
  "lat": 35.1510200,
  "lon": 126.9198800
},
{
  "type": "node",
  "id": 436871738,
  "lat": 35.1520200,
  "lon": 126.9182800
},
{
  "type": "node",
  "id": 436871739,
  "lat": 35.1523800,
  "lon": 126.9177600
},
{
  "type": "node",
  "id": 436871740,
  "lat": 35.1531063,
  "lon": 126.9165524
},
{
  "type": "node",
  "id": 436871741,
  "lat": 35.1540332,
  "lon": 126.9151034
},
{
  "type": "node",
  "id": 436871744,
  "lat": 35.1573200,
  "lon": 126.9118400
},
{
  "type": "node",
  "id": 436871745,
  "lat": 35.1579142,
  "lon": 126.9115807
},
{
  "type": "node",
  "id": 436871760,
  "lat": 35.1575200,
  "lon": 126.9131400
},
{
  "type": "node",
  "id": 436872808,
  "lat": 35.1493277,
  "lon": 126.9291071
},
{
  "type": "node",
  "id": 436872809,
  "lat": 35.1493600,
  "lon": 126.9289800
},
{
  "type": "node",
  "id": 436872810,
  "lat": 35.1491786,
  "lon": 126.9282213
},
{
  "type": "node",
  "id": 436872811,
  "lat": 35.1491151,
  "lon": 126.9280889
},
{
  "type": "node",
  "id": 436872812,
  "lat": 35.1490416,
  "lon": 126.9277803
},
{
  "type": "node",
  "id": 436872813,
  "lat": 35.1491701,
  "lon": 126.9270628
},
{
  "type": "node",
  "id": 436872814,
  "lat": 35.1491356,
  "lon": 126.9265980
},
{
  "type": "node",
  "id": 436872816,
  "lat": 35.1488182,
  "lon": 126.9251727
},
{
  "type": "node",
  "id": 436872818,
  "lat": 35.1493902,
  "lon": 126.9243810
},
{
  "type": "node",
  "id": 436872819,
  "lat": 35.1502883,
  "lon": 126.9230626
},
{
  "type": "node",
  "id": 436872842,
  "lat": 35.1472089,
  "lon": 126.9118820
},
{
  "type": "node",
  "id": 436872847,
  "lat": 35.1507300,
  "lon": 126.9160600
},
{
  "type": "node",
  "id": 436872849,
  "lat": 35.1522484,
  "lon": 126.9179503
},
{
  "type": "node",
  "id": 436872851,
  "lat": 35.1538321,
  "lon": 126.9198470
},
{
  "type": "node",
  "id": 436872852,
  "lat": 35.1543104,
  "lon": 126.9203356
},
{
  "type": "node",
  "id": 436872853,
  "lat": 35.1545038,
  "lon": 126.9206368
},
{
  "type": "node",
  "id": 436872855,
  "lat": 35.1548100,
  "lon": 126.9206700
},
{
  "type": "node",
  "id": 436872856,
  "lat": 35.1574900,
  "lon": 126.9206000
},
{
  "type": "node",
  "id": 436872857,
  "lat": 35.1576000,
  "lon": 126.9206000
},
{
  "type": "node",
  "id": 436873298,
  "lat": 35.1491274,
  "lon": 126.9294682
},
{
  "type": "node",
  "id": 436874909,
  "lat": 35.1427360,
  "lon": 126.9165672
},
{
  "type": "node",
  "id": 436874910,
  "lat": 35.1439900,
  "lon": 126.9150900
},
{
  "type": "node",
  "id": 436874911,
  "lat": 35.1446869,
  "lon": 126.9142279
},
{
  "type": "node",
  "id": 436874913,
  "lat": 35.1452169,
  "lon": 126.9136289
},
{
  "type": "node",
  "id": 436874914,
  "lat": 35.1466280,
  "lon": 126.9123796
},
{
  "type": "node",
  "id": 436874916,
  "lat": 35.1484293,
  "lon": 126.9108523
},
{
  "type": "node",
  "id": 436874978,
  "lat": 35.1408100,
  "lon": 126.9175300
},
{
  "type": "node",
  "id": 436874979,
  "lat": 35.1416120,
  "lon": 126.9168659
},
{
  "type": "node",
  "id": 436874981,
  "lat": 35.1441100,
  "lon": 126.9140900
},
{
  "type": "node",
  "id": 436874982,
  "lat": 35.1447199,
  "lon": 126.9132990
},
{
  "type": "node",
  "id": 436874983,
  "lat": 35.1456000,
  "lon": 126.9125100
},
{
  "type": "node",
  "id": 436874984,
  "lat": 35.1468311,
  "lon": 126.9113955
},
{
  "type": "node",
  "id": 824091056,
  "lat": 35.1544378,
  "lon": 126.9208567
},
{
  "type": "node",
  "id": 824103264,
  "lat": 35.1479464,
  "lon": 126.9108571
},
{
  "type": "node",
  "id": 824103278,
  "lat": 35.1473446,
  "lon": 126.9190244
},
{
  "type": "node",
  "id": 824103286,
  "lat": 35.1468148,
  "lon": 126.9118554
},
{
  "type": "node",
  "id": 824103415,
  "lat": 35.1475019,
  "lon": 126.9190287
},
{
  "type": "node",
  "id": 824103424,
  "lat": 35.1477853,
  "lon": 126.9188570
},
{
  "type": "node",
  "id": 824103473,
  "lat": 35.1437612,
  "lon": 126.9149327
},
{
  "type": "node",
  "id": 824103484,
  "lat": 35.1411794,
  "lon": 126.9176938
},
{
  "type": "node",
  "id": 824103619,
  "lat": 35.1451419,
  "lon": 126.9132156
},
{
  "type": "node",
  "id": 824103765,
  "lat": 35.1470921,
  "lon": 126.9189115
},
{
  "type": "node",
  "id": 824104005,
  "lat": 35.1476796,
  "lon": 126.9189507
},
{
  "type": "node",
  "id": 824104043,
  "lat": 35.1445010,
  "lon": 126.9140310
},
{
  "type": "node",
  "id": 824104051,
  "lat": 35.1424405,
  "lon": 126.9166059
},
{
  "type": "node",
  "id": 891518023,
  "lat": 35.1483295,
  "lon": 126.9133452
},
{
  "type": "node",
  "id": 891518031,
  "lat": 35.1475340,
  "lon": 126.9149132,
  "tags": {
    "name": "Palace",
    "tourism": "hotel"
  }
},
{
  "type": "node",
  "id": 891518040,
  "lat": 35.1494988,
  "lon": 126.9145241
},
{
  "type": "node",
  "id": 891518044,
  "lat": 35.1471463,
  "lon": 126.9180164
},
{
  "type": "node",
  "id": 891518045,
  "lat": 35.1469368,
  "lon": 126.9153974
},
{
  "type": "node",
  "id": 891518067,
  "lat": 35.1478798,
  "lon": 126.9169160
},
{
  "type": "node",
  "id": 1212766031,
  "lat": 35.1547894,
  "lon": 126.9269902
},
{
  "type": "node",
  "id": 1212766045,
  "lat": 35.1549817,
  "lon": 126.9276608
},
{
  "type": "node",
  "id": 1212766054,
  "lat": 35.1488695,
  "lon": 126.9233180
},
{
  "type": "node",
  "id": 1212766089,
  "lat": 35.1558955,
  "lon": 126.9274247
},
{
  "type": "node",
  "id": 1212766102,
  "lat": 35.1487903,
  "lon": 126.9255143
},
{
  "type": "node",
  "id": 1212766124,
  "lat": 35.1555191,
  "lon": 126.9276651
},
{
  "type": "node",
  "id": 1212766154,
  "lat": 35.1480974,
  "lon": 126.9249265
},
{
  "type": "node",
  "id": 1212766163,
  "lat": 35.1596267,
  "lon": 126.9257895
},
{
  "type": "node",
  "id": 1212766181,
  "lat": 35.1571364,
  "lon": 126.9283613
},
{
  "type": "node",
  "id": 1212766185,
  "lat": 35.1581812,
  "lon": 126.9298080
},
{
  "type": "node",
  "id": 1212766201,
  "lat": 35.1548760,
  "lon": 126.9272937
},
{
  "type": "node",
  "id": 1212766212,
  "lat": 35.1568533,
  "lon": 126.9279751
},
{
  "type": "node",
  "id": 1212766214,
  "lat": 35.1552200,
  "lon": 126.9277331
},
{
  "type": "node",
  "id": 1212780113,
  "lat": 35.1576383,
  "lon": 126.9258266
},
{
  "type": "node",
  "id": 1212780117,
  "lat": 35.1567334,
  "lon": 126.9206198
},
{
  "type": "node",
  "id": 1212780127,
  "lat": 35.1571141,
  "lon": 126.9173195
},
{
  "type": "node",
  "id": 1212780129,
  "lat": 35.1589857,
  "lon": 126.9165978
},
{
  "type": "node",
  "id": 1212780136,
  "lat": 35.1555850,
  "lon": 126.9136561
},
{
  "type": "node",
  "id": 1212780137,
  "lat": 35.1567264,
  "lon": 126.9223605
},
{
  "type": "node",
  "id": 1212780147,
  "lat": 35.1584634,
  "lon": 126.9194268
},
{
  "type": "node",
  "id": 1212780151,
  "lat": 35.1486254,
  "lon": 126.9299411
},
{
  "type": "node",
  "id": 1212780167,
  "lat": 35.1574258,
  "lon": 126.9176884
},
{
  "type": "node",
  "id": 1212780168,
  "lat": 35.1576231,
  "lon": 126.9229637
},
{
  "type": "node",
  "id": 1212780176,
  "lat": 35.1595167,
  "lon": 126.9182478
},
{
  "type": "node",
  "id": 1212780186,
  "lat": 35.1577619,
  "lon": 126.9186761
},
{
  "type": "node",
  "id": 1212780198,
  "lat": 35.1587740,
  "lon": 126.9187648
},
{
  "type": "node",
  "id": 1212780199,
  "lat": 35.1589127,
  "lon": 126.9164155
},
{
  "type": "node",
  "id": 1212780202,
  "lat": 35.1586359,
  "lon": 126.9128754
},
{
  "type": "node",
  "id": 1212780216,
  "lat": 35.1582147,
  "lon": 126.9239593
},
{
  "type": "node",
  "id": 1212780220,
  "lat": 35.1551284,
  "lon": 126.9163052
},
{
  "type": "node",
  "id": 1212780222,
  "lat": 35.1482309,
  "lon": 126.9298791
},
{
  "type": "node",
  "id": 1212780245,
  "lat": 35.1589133,
  "lon": 126.9196928
},
{
  "type": "node",
  "id": 1212780247,
  "lat": 35.1590517,
  "lon": 126.9295262
},
{
  "type": "node",
  "id": 1212780256,
  "lat": 35.1472514,
  "lon": 126.9296278
},
{
  "type": "node",
  "id": 1212780258,
  "lat": 35.1580447,
  "lon": 126.9182985
},
{
  "type": "node",
  "id": 1212780262,
  "lat": 35.1599699,
  "lon": 126.9195071
},
{
  "type": "node",
  "id": 1212780263,
  "lat": 35.1578921,
  "lon": 126.9293795
},
{
  "type": "node",
  "id": 1212780264,
  "lat": 35.1593324,
  "lon": 126.9205358
},
{
  "type": "node",
  "id": 1212780283,
  "lat": 35.1587319,
  "lon": 126.9143753
},
{
  "type": "node",
  "id": 1212780285,
  "lat": 35.1538448,
  "lon": 126.9164557
},
{
  "type": "node",
  "id": 1212780288,
  "lat": 35.1559061,
  "lon": 126.9172974
},
{
  "type": "node",
  "id": 1212780289,
  "lat": 35.1578208,
  "lon": 126.9231632
},
{
  "type": "node",
  "id": 1212780294,
  "lat": 35.1555519,
  "lon": 126.9154572
},
{
  "type": "node",
  "id": 1212780299,
  "lat": 35.1582321,
  "lon": 126.9172878
},
{
  "type": "node",
  "id": 1212780308,
  "lat": 35.1558728,
  "lon": 126.9206422
},
{
  "type": "node",
  "id": 1212780324,
  "lat": 35.1483965,
  "lon": 126.9294381
},
{
  "type": "node",
  "id": 1212780338,
  "lat": 35.1473131,
  "lon": 126.9299604
},
{
  "type": "node",
  "id": 1212780351,
  "lat": 35.1592897,
  "lon": 126.9164406
},
{
  "type": "node",
  "id": 1212780361,
  "lat": 35.1584498,
  "lon": 126.9185632
},
{
  "type": "node",
  "id": 1212780369,
  "lat": 35.1567386,
  "lon": 126.9200427
},
{
  "type": "node",
  "id": 1212780384,
  "lat": 35.1595074,
  "lon": 126.9293686
},
{
  "type": "node",
  "id": 1212780402,
  "lat": 35.1577958,
  "lon": 126.9140123
},
{
  "type": "node",
  "id": 1212780404,
  "lat": 35.1539253,
  "lon": 126.9246364
},
{
  "type": "node",
  "id": 1212780405,
  "lat": 35.1594145,
  "lon": 126.9171648
},
{
  "type": "node",
  "id": 1212780409,
  "lat": 35.1582544,
  "lon": 126.9199244
},
{
  "type": "node",
  "id": 1212780412,
  "lat": 35.1570994,
  "lon": 126.9129884
},
{
  "type": "node",
  "id": 1212780414,
  "lat": 35.1538034,
  "lon": 126.9262630
},
{
  "type": "node",
  "id": 1212780416,
  "lat": 35.1588149,
  "lon": 126.9156884
},
{
  "type": "node",
  "id": 1212780423,
  "lat": 35.1573325,
  "lon": 126.9138367
},
{
  "type": "node",
  "id": 1212780437,
  "lat": 35.1539016,
  "lon": 126.9199297
},
{
  "type": "node",
  "id": 1212780438,
  "lat": 35.1462289,
  "lon": 126.9293052
},
{
  "type": "node",
  "id": 1212780442,
  "lat": 35.1591165,
  "lon": 126.9168450
},
{
  "type": "node",
  "id": 1212780453,
  "lat": 35.1586697,
  "lon": 126.9160128
},
{
  "type": "node",
  "id": 1212780454,
  "lat": 35.1595929,
  "lon": 126.9275681
},
{
  "type": "node",
  "id": 1212780463,
  "lat": 35.1585475,
  "lon": 126.9176271
},
{
  "type": "node",
  "id": 1212780466,
  "lat": 35.1587638,
  "lon": 126.9177793
},
{
  "type": "node",
  "id": 1212780469,
  "lat": 35.1576954,
  "lon": 126.9119599
},
{
  "type": "node",
  "id": 1212780471,
  "lat": 35.1588455,
  "lon": 126.9161327
},
{
  "type": "node",
  "id": 1212780478,
  "lat": 35.1567438,
  "lon": 126.9136181
},
{
  "type": "node",
  "id": 1212780480,
  "lat": 35.1599976,
  "lon": 126.9299735
},
{
  "type": "node",
  "id": 1212780481,
  "lat": 35.1599059,
  "lon": 126.9150455
},
{
  "type": "node",
  "id": 1212780482,
  "lat": 35.1478100,
  "lon": 126.9282577
},
{
  "type": "node",
  "id": 1212780493,
  "lat": 35.1588692,
  "lon": 126.9152315
},
{
  "type": "node",
  "id": 1212780495,
  "lat": 35.1591363,
  "lon": 126.9145310
},
{
  "type": "node",
  "id": 1212780501,
  "lat": 35.1590815,
  "lon": 126.9179698
},
{
  "type": "node",
  "id": 1212780504,
  "lat": 35.1596313,
  "lon": 126.9166592
},
{
  "type": "node",
  "id": 1212780506,
  "lat": 35.1492371,
  "lon": 126.9296726
},
{
  "type": "node",
  "id": 1212780515,
  "lat": 35.1579694,
  "lon": 126.9169561
},
{
  "type": "node",
  "id": 1212780517,
  "lat": 35.1459849,
  "lon": 126.9270161
},
{
  "type": "node",
  "id": 1212780520,
  "lat": 35.1452478,
  "lon": 126.9286057
},
{
  "type": "node",
  "id": 1212780522,
  "lat": 35.1598414,
  "lon": 126.9174480
},
{
  "type": "node",
  "id": 1212780533,
  "lat": 35.1591768,
  "lon": 126.9280054
},
{
  "type": "node",
  "id": 1212780534,
  "lat": 35.1593281,
  "lon": 126.9199192
},
{
  "type": "node",
  "id": 1212780536,
  "lat": 35.1559532,
  "lon": 126.9219043
},
{
  "type": "node",
  "id": 1212780539,
  "lat": 35.1549274,
  "lon": 126.9136276
},
{
  "type": "node",
  "id": 1212780542,
  "lat": 35.1484994,
  "lon": 126.9287600
},
{
  "type": "node",
  "id": 1212780545,
  "lat": 35.1566482,
  "lon": 126.9137704
},
{
  "type": "node",
  "id": 1212780547,
  "lat": 35.1596099,
  "lon": 126.9156994
},
{
  "type": "node",
  "id": 1212780549,
  "lat": 35.1568715,
  "lon": 126.9176452
},
{
  "type": "node",
  "id": 1212780553,
  "lat": 35.1563746,
  "lon": 126.9233364
},
{
  "type": "node",
  "id": 1212780559,
  "lat": 35.1557481,
  "lon": 126.9150990
},
{
  "type": "node",
  "id": 1212780566,
  "lat": 35.1576846,
  "lon": 126.9179555
},
{
  "type": "node",
  "id": 1212780568,
  "lat": 35.1591983,
  "lon": 126.9190148
},
{
  "type": "node",
  "id": 1212780572,
  "lat": 35.1582734,
  "lon": 126.9141988
},
{
  "type": "node",
  "id": 1212780586,
  "lat": 35.1599657,
  "lon": 126.9271775
},
{
  "type": "node",
  "id": 1212780591,
  "lat": 35.1448670,
  "lon": 126.9294269
},
{
  "type": "node",
  "id": 1212787983,
  "lat": 35.1577204,
  "lon": 126.9125171
},
{
  "type": "node",
  "id": 1212787988,
  "lat": 35.1590774,
  "lon": 126.9103527
},
{
  "type": "node",
  "id": 1212787993,
  "lat": 35.1588505,
  "lon": 126.9112041
},
{
  "type": "node",
  "id": 1212787995,
  "lat": 35.1577621,
  "lon": 126.9123854
},
{
  "type": "node",
  "id": 1212788002,
  "lat": 35.1583232,
  "lon": 126.9121726
},
{
  "type": "node",
  "id": 1212788005,
  "lat": 35.1581668,
  "lon": 126.9107117
},
{
  "type": "node",
  "id": 1212788013,
  "lat": 35.1578872,
  "lon": 126.9108125
},
{
  "type": "node",
  "id": 1212788018,
  "lat": 35.1558773,
  "lon": 126.9121986
},
{
  "type": "node",
  "id": 1212788025,
  "lat": 35.1591304,
  "lon": 126.9125393
},
{
  "type": "node",
  "id": 1212788026,
  "lat": 35.1577960,
  "lon": 126.9116321
},
{
  "type": "node",
  "id": 1212788034,
  "lat": 35.1593237,
  "lon": 126.9100638
},
{
  "type": "node",
  "id": 1212788036,
  "lat": 35.1593402,
  "lon": 126.9117488
},
{
  "type": "node",
  "id": 1212788051,
  "lat": 35.1592499,
  "lon": 126.9102714
},
{
  "type": "node",
  "id": 1212788053,
  "lat": 35.1590060,
  "lon": 126.9130203
},
{
  "type": "node",
  "id": 1212788059,
  "lat": 35.1598894,
  "lon": 126.9133661
},
{
  "type": "node",
  "id": 1212788060,
  "lat": 35.1571575,
  "lon": 126.9111239
},
{
  "type": "node",
  "id": 1212788070,
  "lat": 35.1563360,
  "lon": 126.9114307
},
{
  "type": "node",
  "id": 1212788074,
  "lat": 35.1590510,
  "lon": 126.9118529
},
{
  "type": "node",
  "id": 1212813658,
  "lat": 35.1503238,
  "lon": 126.9212252
},
{
  "type": "node",
  "id": 1212813664,
  "lat": 35.1541247,
  "lon": 126.9293188
},
{
  "type": "node",
  "id": 1212813675,
  "lat": 35.1493293,
  "lon": 126.9207366
},
{
  "type": "node",
  "id": 1212813684,
  "lat": 35.1439780,
  "lon": 126.9173780
},
{
  "type": "node",
  "id": 1212813693,
  "lat": 35.1537424,
  "lon": 126.9243320
},
{
  "type": "node",
  "id": 1212813703,
  "lat": 35.1494433,
  "lon": 126.9258900
},
{
  "type": "node",
  "id": 1212813705,
  "lat": 35.1520492,
  "lon": 126.9272293
},
{
  "type": "node",
  "id": 1212813720,
  "lat": 35.1525994,
  "lon": 126.9224006
},
{
  "type": "node",
  "id": 1212813722,
  "lat": 35.1492262,
  "lon": 126.9251303
},
{
  "type": "node",
  "id": 1212813731,
  "lat": 35.1536277,
  "lon": 126.9215757
},
{
  "type": "node",
  "id": 1212813753,
  "lat": 35.1514523,
  "lon": 126.9215258
},
{
  "type": "node",
  "id": 1212813760,
  "lat": 35.1502669,
  "lon": 126.9232825
},
{
  "type": "node",
  "id": 1212813776,
  "lat": 35.1545203,
  "lon": 126.9216062
},
{
  "type": "node",
  "id": 1212813783,
  "lat": 35.1537135,
  "lon": 126.9207936
},
{
  "type": "node",
  "id": 1212813806,
  "lat": 35.1545640,
  "lon": 126.9294935
},
{
  "type": "node",
  "id": 1212813810,
  "lat": 35.1539449,
  "lon": 126.9232784
},
{
  "type": "node",
  "id": 1212813819,
  "lat": 35.1504083,
  "lon": 126.9208204
},
{
  "type": "node",
  "id": 1212813822,
  "lat": 35.1536997,
  "lon": 126.9240252
},
{
  "type": "node",
  "id": 1212813832,
  "lat": 35.1497280,
  "lon": 126.9270948
},
{
  "type": "node",
  "id": 1212813842,
  "lat": 35.1525623,
  "lon": 126.9158874
},
{
  "type": "node",
  "id": 1212813854,
  "lat": 35.1499196,
  "lon": 126.9215568
},
{
  "type": "node",
  "id": 1212813860,
  "lat": 35.1498560,
  "lon": 126.9201457
},
{
  "type": "node",
  "id": 1212813862,
  "lat": 35.1534840,
  "lon": 126.9294467
},
{
  "type": "node",
  "id": 1212813864,
  "lat": 35.1502137,
  "lon": 126.9275599
},
{
  "type": "node",
  "id": 1212813879,
  "lat": 35.1522952,
  "lon": 126.9204704
},
{
  "type": "node",
  "id": 1212813886,
  "lat": 35.1518847,
  "lon": 126.9218553
},
{
  "type": "node",
  "id": 1212813901,
  "lat": 35.1482422,
  "lon": 126.9192314
},
{
  "type": "node",
  "id": 1212813904,
  "lat": 35.1525840,
  "lon": 126.9243016
},
{
  "type": "node",
  "id": 1212813931,
  "lat": 35.1527708,
  "lon": 126.9265839
},
{
  "type": "node",
  "id": 1212813934,
  "lat": 35.1533696,
  "lon": 126.9226227
},
{
  "type": "node",
  "id": 1212813941,
  "lat": 35.1491297,
  "lon": 126.9258303
},
{
  "type": "node",
  "id": 1212813948,
  "lat": 35.1537004,
  "lon": 126.9217505
},
{
  "type": "node",
  "id": 1212813964,
  "lat": 35.1510163,
  "lon": 126.9283386
},
{
  "type": "node",
  "id": 1212813967,
  "lat": 35.1522161,
  "lon": 126.9105307
},
{
  "type": "node",
  "id": 1212813975,
  "lat": 35.1524932,
  "lon": 126.9256198
},
{
  "type": "node",
  "id": 1212813977,
  "lat": 35.1539695,
  "lon": 126.9216576
},
{
  "type": "node",
  "id": 1212813987,
  "lat": 35.1520449,
  "lon": 126.9215973
},
{
  "type": "node",
  "id": 1212813990,
  "lat": 35.1548963,
  "lon": 126.9294993
},
{
  "type": "node",
  "id": 1212813992,
  "lat": 35.1513330,
  "lon": 126.9237727
},
{
  "type": "node",
  "id": 1212814008,
  "lat": 35.1542343,
  "lon": 126.9226961
},
{
  "type": "node",
  "id": 1212814016,
  "lat": 35.1536827,
  "lon": 126.9241471
},
{
  "type": "node",
  "id": 1212814021,
  "lat": 35.1477199,
  "lon": 126.9266888
},
{
  "type": "node",
  "id": 1212814022,
  "lat": 35.1532545,
  "lon": 126.9259202
},
{
  "type": "node",
  "id": 1212814040,
  "lat": 35.1506073,
  "lon": 126.9246397
},
{
  "type": "node",
  "id": 1212814045,
  "lat": 35.1500830,
  "lon": 126.9282072
},
{
  "type": "node",
  "id": 1212814058,
  "lat": 35.1528011,
  "lon": 126.9197110
},
{
  "type": "node",
  "id": 1212814065,
  "lat": 35.1539045,
  "lon": 126.9233609
},
{
  "type": "node",
  "id": 1212814083,
  "lat": 35.1503638,
  "lon": 126.9132582
},
{
  "type": "node",
  "id": 1212814088,
  "lat": 35.1440824,
  "lon": 126.9179576
},
{
  "type": "node",
  "id": 1212814107,
  "lat": 35.1493650,
  "lon": 126.9265878
},
{
  "type": "node",
  "id": 1212814109,
  "lat": 35.1529967,
  "lon": 126.9225888
},
{
  "type": "node",
  "id": 1212814110,
  "lat": 35.1488502,
  "lon": 126.9257853
},
{
  "type": "node",
  "id": 1212814112,
  "lat": 35.1513908,
  "lon": 126.9277514
},
{
  "type": "node",
  "id": 1212814129,
  "lat": 35.1536943,
  "lon": 126.9147255
},
{
  "type": "node",
  "id": 1212814134,
  "lat": 35.1497326,
  "lon": 126.9173513
},
{
  "type": "node",
  "id": 1212814136,
  "lat": 35.1528066,
  "lon": 126.9233303
},
{
  "type": "node",
  "id": 1212814145,
  "lat": 35.1499866,
  "lon": 126.9253037
},
{
  "type": "node",
  "id": 1212814154,
  "lat": 35.1525941,
  "lon": 126.9260117
},
{
  "type": "node",
  "id": 1212814165,
  "lat": 35.1505057,
  "lon": 126.9254109
},
{
  "type": "node",
  "id": 1212814169,
  "lat": 35.1547926,
  "lon": 126.9295341
},
{
  "type": "node",
  "id": 1212814171,
  "lat": 35.1541278,
  "lon": 126.9229377
},
{
  "type": "node",
  "id": 1212814173,
  "lat": 35.1502550,
  "lon": 126.9108077
},
{
  "type": "node",
  "id": 1212814193,
  "lat": 35.1538657,
  "lon": 126.9235800
},
{
  "type": "node",
  "id": 1212814194,
  "lat": 35.1475810,
  "lon": 126.9266352
},
{
  "type": "node",
  "id": 1212814196,
  "lat": 35.1529932,
  "lon": 126.9263311
},
{
  "type": "node",
  "id": 1212814197,
  "lat": 35.1493216,
  "lon": 126.9119721
},
{
  "type": "node",
  "id": 1212814214,
  "lat": 35.1533698,
  "lon": 126.9286954
},
{
  "type": "node",
  "id": 1212814216,
  "lat": 35.1527173,
  "lon": 126.9199052
},
{
  "type": "node",
  "id": 1212814237,
  "lat": 35.1483080,
  "lon": 126.9181211
},
{
  "type": "node",
  "id": 1212814239,
  "lat": 35.1484494,
  "lon": 126.9159507
},
{
  "type": "node",
  "id": 1212814244,
  "lat": 35.1529497,
  "lon": 126.9138892
},
{
  "type": "node",
  "id": 1212814260,
  "lat": 35.1506912,
  "lon": 126.9226748
},
{
  "type": "node",
  "id": 1212814262,
  "lat": 35.1503844,
  "lon": 126.9181972
},
{
  "type": "node",
  "id": 1212814264,
  "lat": 35.1519165,
  "lon": 126.9209684
},
{
  "type": "node",
  "id": 1212814270,
  "lat": 35.1515523,
  "lon": 126.9256294
},
{
  "type": "node",
  "id": 1212814285,
  "lat": 35.1437966,
  "lon": 126.9161256
},
{
  "type": "node",
  "id": 1212814289,
  "lat": 35.1544906,
  "lon": 126.9226199
},
{
  "type": "node",
  "id": 1212814294,
  "lat": 35.1526600,
  "lon": 126.9287301
},
{
  "type": "node",
  "id": 1212814296,
  "lat": 35.1517656,
  "lon": 126.9216760
},
{
  "type": "node",
  "id": 1212814298,
  "lat": 35.1512407,
  "lon": 126.9278223
},
{
  "type": "node",
  "id": 1212814309,
  "lat": 35.1439489,
  "lon": 126.9151393
},