{
  "type": "FeatureCollection",
  "generator": "overpass-ide",
  "copyright": "The data included in this document is from www.openstreetmap.org. The data is made available under ODbL.",
  "timestamp": "2018-10-19T18:12:02Z",
  "features": [
    {
      "type": "Feature",
      "properties": {
        "@id": "node/358015168",
        "alt_name:ko": "광주",
        "is_in": "대한민국",
        "is_in:continent": "Asia",
        "is_in:country": "Republic of Korea",
        "is_in:country_code": "KR",
        "name": "광주",
        "name:af": "Gwangju",
        "name:ar": "غوانغجو",
        "name:bg": "Куанджу",
        "name:bi": "Gwangju",
        "name:ca": "Gwangju",
        "name:cs": "Kwangdžu",
        "name:da": "Gwangju",
        "name:de": "Gwangju",
        "name:el": "Γκουάνγκτζου",
        "name:en": "Gwangju",
        "name:eo": "Gŭangĝu",
        "name:es": "Gwangju",
        "name:et": "Kwangju",
        "name:eu": "Gwangju",
        "name:fa": "گوانگجو",
        "name:fi": "Gwangju",
        "name:fr": "Gwangju",
        "name:he": "קוואנגג'ו",
        "name:ht": "Gouanjou",
        "name:id": "Gwangju",
        "name:io": "Gwangju",
        "name:it": "Gwangju",
        "name:ja": "光州",
        "name:kl": "Gwangju",
        "name:la": "Quansua",
        "name:lt": "Kvandžu",
        "name:mi": "Gwangju",
        "name:mn": "Куанжү",
        "name:mr": "ग्वांगजू",
        "name:ms": "Gwangju",
        "name:nl": "Gwangju",
        "name:no": "Gwangju",
        "name:oc": "Kwangju",
        "name:pl": "Gwangju",
        "name:pt": "Gwangju",
        "name:ro": "Gwangju",
        "name:ru": "Кванджу",
        "name:sr": "Квангџу",
        "name:sv": "Gwangju",
        "name:sw": "Gwangju",
        "name:th": "ควังจู",
        "name:tl": "Gwangju",
        "name:tr": "Gwangju",
        "name:uk": "Кванджу",
        "name:vi": "Gwangju",
        "name:vo": "Gwangju",
        "name:zh": "光州",
        "official_name": "광주광역시",
        "official_name:en": "Gwangju Metropolitan City",
        "official_name:ja": "光州広域市",
        "official_name:ko": "광주광역시",
        "official_name:zh": "光州广域市",
        "place": "city",
        "population": "1460745",
        "population:date": "2018-06-30",
        "source:name:oc": "Lo Congrès",
        "source:population": "통계청(KOSIS)",
        "wikidata": "Q41283",
        "wikipedia": "en:Gwangju"
      },
      "geometry": {
        "type": "Point",
        "coordinates": [
          126.8513006,
          35.1601443
        ]
      },
      "id": "node/358015168"
    },
    {
      "type": "Feature",
      "properties": {
        "@id": "node/368633341",
        "name": "터미널관광안내소",
        "name:en": "Terminal Tourist Information Center",
        "name:ko-Latn": "Teomineolgwangwangannaeso",
        "ncat": "관광안내소",
        "source": "http://kr.open.gugi.yahoo.com",
        "tourism": "information"
      },
      "geometry": {
        "type": "Point",
        "coordinates": [
          126.879835,
          35.1610871
        ]
      },
      "id": "node/368633341"
    },
    {
      "type": "Feature",
      "properties": {
        "@id": "node/368641374",
        "amenity": "bank",
        "atm": "yes",
        "name": "북광주농협 (Bukgwangju Nonghyup)",
        "name:en": "Bukgwangju Nonghyup",
        "name:ko-Latn": "Bukgwangjunonghyeop",
        "ncat": "농협",
        "source": "http://kr.open.gugi.yahoo.com"
      },
      "geometry": {
        "type": "Point",
        "coordinates": [
          126.8753317,
          35.197994
        ]
      },
      "id": "node/368641374"
    },
    {
      "type": "Feature",
      "properties": {
        "@id": "node/368641395",
        "amenity": "bank",
        "atm": "yes",
        "name": "서광주농협",
        "name:en": "Seogwangju Nonghyup",
        "name:ko-Latn": "Seogwangjunonghyeop",
        "ncat": "농협",
        "source": "http://kr.open.gugi.yahoo.com"
      },
      "geometry": {
        "type": "Point",
        "coordinates": [
          126.8648867,
          35.1869409
        ]
      },
      "id": "node/368641395"
    },
    {
      "type": "Feature",
      "properties": {
        "@id": "node/368641416",
        "amenity": "bank",
        "atm": "yes",
        "name": "서광주농협",
        "name:en": "Seogwangju Nonghyup",
        "name:ko-Latn": "Seogwangjunonghyeop",
        "ncat": "농협",
        "source": "http://kr.open.gugi.yahoo.com"
      },
      "geometry": {
        "type": "Point",
        "coordinates": [
          126.852908,
          35.164076
        ]
      },
      "id": "node/368641416"
    },
    {
      "type": "Feature",
      "properties": {
        "@id": "node/368641436",
        "amenity": "bank",
        "atm": "yes",
        "name": "서광주농협 (Seogwangju Nonghyup)",
        "name:en": "Seogwangju Nonghyup",
        "name:ko-Latn": "Seogwangjunonghyeop",
        "ncat": "농협",
        "source": "http://kr.open.gugi.yahoo.com"
      },
      "geometry": {
        "type": "Point",
        "coordinates": [
          126.87286,
          35.182031
        ]
      },
      "id": "node/368641436"
    },
    {
      "type": "Feature",
      "properties": {
        "@id": "node/368641491",
        "amenity": "bank",
        "atm": "yes",
        "name": "해남화원농협 (Haenamhwawon Nonghyup)",
        "name:en": "Haenamhwawon Nonghyup",
        "name:ko-Latn": "Haenamhwawonnonghyeop",
        "ncat": "농협",
        "source": "http://kr.open.gugi.yahoo.com"
      },
      "geometry": {
        "type": "Point",
        "coordinates": [
          126.85618,
          35.173455
        ]
      },
      "id": "node/368641491"
    },
    {
      "type": "Feature",
      "properties": {
        "@id": "node/368641609",
        "amenity": "bank",
        "atm": "yes",
        "name": "서광주농협 (Seogwangju Nonghyup)",
        "name:en": "Seogwangju Nonghyup",
        "name:ko-Latn": "Seogwangjunonghyeop",
        "ncat": "농협",
        "source": "http://kr.open.gugi.yahoo.com"
      },
      "geometry": {
        "type": "Point",
        "coordinates": [
          126.876833,
          35.166157
        ]
      },
      "id": "node/368641609"
    },
    {
      "type": "Feature",
      "properties": {
        "@id": "node/368675374",
        "name": "송원치킨마트 (Songwon Chicken Mart)",
        "name:en": "Songwon Chicken Mart",
        "name:ko-Latn": "Songwonchikinmateu",
        "ncat": "마트",
        "shop": "supermarket",
        "source": "http://kr.open.gugi.yahoo.com"
      },
      "geometry": {
        "type": "Point",
        "coordinates": [
          126.877097,
          35.166123
        ]
      },
      "id": "node/368675374"
    },
    {
      "type": "Feature",
      "properties": {
        "@id": "node/368675447",
        "name": "펌프마트 (Peompeu Mart)",
        "name:en": "Peompeu Mart",
        "name:ko-Latn": "Peompeumateu",
        "ncat": "마트",
        "shop": "supermarket",
        "source": "http://kr.open.gugi.yahoo.com"
      },
      "geometry": {
        "type": "Point",
        "coordinates": [
          126.87963,
          35.171105
        ]
      },
      "id": "node/368675447"
    },
    {
      "type": "Feature",
      "properties": {
        "@id": "node/368675600",
        "name": "예원분재꽃화훼마트 (Yewonbunjaeggochhwahwe Mart)",
        "name:en": "Yewonbunjaeggochhwahwe Mart",
        "name:ko-Latn": "Yewonbunjaeggochhwahwemateu",
        "ncat": "마트",
        "shop": "supermarket",
        "source": "http://kr.open.gugi.yahoo.com"
      },
      "geometry": {
        "type": "Point",
        "coordinates": [
          126.8490837,
          35.1939663
        ]
      },
      "id": "node/368675600"
    },
    {
      "type": "Feature",
      "properties": {
        "@id": "node/368675902",
        "name": "푸른마트 (Pureun Mart)",
        "name:en": "Pureun Mart",
        "name:ko-Latn": "Pureunmateu",
        "ncat": "마트",
        "shop": "supermarket",
        "source": "http://kr.open.gugi.yahoo.com"
      },
      "geometry": {
        "type": "Point",
        "coordinates": [
          126.868786,
          35.1876
        ]
      },
      "id": "node/368675902"
    },
    {
      "type": "Feature",
      "properties": {
        "@id": "node/368676010",
        "name": "영암마트",
        "name:en": "Y-Mart",
        "name:ko-Latn": "Jeromateu",
        "ncat": "마트",
        "shop": "supermarket",
        "source": "http://kr.open.gugi.yahoo.com"
      },
      "geometry": {
        "type": "Point",
        "coordinates": [
          126.8640563,
          35.1773621
        ]
      },
      "id": "node/368676010"
    },
    {
      "type": "Feature",
      "properties": {
        "@id": "node/368676082",
        "name": "주공마트 (Jugong Mart)",
        "name:en": "Jugong Mart",
        "name:ko-Latn": "Jugongmateu",
        "ncat": "마트",
        "shop": "supermarket",
        "source": "http://kr.open.gugi.yahoo.com"
      },
      "geometry": {
        "type": "Point",
        "coordinates": [
          126.872715,
          35.195705
        ]
      },
      "id": "node/368676082"
    },
    {
      "type": "Feature",
      "properties": {
        "@id": "node/368676299",
        "name": "우미마트 (Umi Mart)",
        "ncat": "마트",
        "shop": "supermarket",
        "source": "http://kr.open.gugi.yahoo.com"
      },
      "geometry": {
        "type": "Point",
        "coordinates": [
          126.860695,
          35.160669
        ]
      },
      "id": "node/368676299"
    },
    {
      "type": "Feature",
      "properties": {
        "@id": "node/368676315",
        "name": "서강마트 (Seogang Mart)",
        "name:en": "Seogang Mart",
        "name:ko-Latn": "Seogangmateu",
        "ncat": "마트",
        "shop": "supermarket",
        "source": "http://kr.open.gugi.yahoo.com"
      },
      "geometry": {
        "type": "Point",
        "coordinates": [
          126.8733336,
          35.1756537
        ]
      },
      "id": "node/368676315"
    },
    {
      "type": "Feature",
      "properties": {
        "@id": "node/368676349",
        "name": "푸른마트 (Pureun Mart)",
        "ncat": "마트",
        "shop": "supermarket",
        "source": "http://kr.open.gugi.yahoo.com"
      },
      "geometry": {
        "type": "Point",
        "coordinates": [
          126.859127,
          35.160556
        ]
      },
      "id": "node/368676349"
    },
    {
      "type": "Feature",
      "properties": {
        "@id": "node/368676396",
        "name": "일신마트",
        "name:en": "Ilsin Mart",
        "name:ko-Latn": "Ilsinmateu",
        "ncat": "마트",
        "shop": "supermarket",
        "source": "http://kr.open.gugi.yahoo.com"
      },
      "geometry": {
        "type": "Point",
        "coordinates": [
          126.8701036,
          35.1820804
        ]
      },
      "id": "node/368676396"
    },
    {
      "type": "Feature",
      "properties": {
        "@id": "node/368676439",
        "name": "산들마트 (Sandeul Mart)",
        "name:en": "Sandeul Mart",
        "name:ko-Latn": "Sandeulmateu",
        "ncat": "마트",
        "shop": "supermarket",
        "source": "http://kr.open.gugi.yahoo.com"
      },
      "geometry": {
        "type": "Point",
        "coordinates": [
          126.8480437,
          35.1933012
        ]
      },
      "id": "node/368676439"
    },
    {
      "type": "Feature",
      "properties": {
        "@id": "node/368676703",
        "name": "우미마트",
        "name:en": "Umi Mart",
        "name:ko-Latn": "Umimateu",
        "ncat": "마트",
        "shop": "supermarket",
        "source": "http://kr.open.gugi.yahoo.com"
      },
      "geometry": {
        "type": "Point",
        "coordinates": [
          126.8695364,
          35.1855721
        ]
      },
      "id": "node/368676703"
    },
    {
      "type": "Feature",
      "properties": {
        "@id": "node/368676715",
        "name": "금호마트 (Geumho Mart)",
        "name:en": "Geumho Mart",
        "name:ko-Latn": "Geumhomateu",
        "ncat": "마트",
        "shop": "supermarket",
        "source": "http://kr.open.gugi.yahoo.com"
      },
      "geometry": {
        "type": "Point",
        "coordinates": [
          126.871966,
          35.180715
        ]
      },
      "id": "node/368676715"
    },
    {
      "type": "Feature",
      "properties": {
        "@id": "node/368676793",
        "name": "우미마트 (Umi Mart)",
        "name:en": "Umi Mart",
        "name:ko-Latn": "Umimateu",
        "ncat": "마트",
        "shop": "supermarket",
        "source": "http://kr.open.gugi.yahoo.com"
      },
      "geometry": {
        "type": "Point",
        "coordinates": [
          126.8717,
          35.1835461
        ]
      },
      "id": "node/368676793"
    },
    {
      "type": "Feature",
      "properties": {
        "@id": "node/368676855",
        "name": "동천마트 (Dongcheon Mart)",
        "name:en": "Dongcheon Mart",
        "name:ko-Latn": "Dongcheonmateu",
        "ncat": "마트",
        "shop": "supermarket",
        "source": "http://kr.open.gugi.yahoo.com"
      },
      "geometry": {
        "type": "Point",
        "coordinates": [
          126.8798711,
          35.1753162
        ]
      },
      "id": "node/368676855"
    },
    {
      "type": "Feature",
      "properties": {
        "@id": "node/368676969",
        "name": "햇살마트 (Haetsal Mart)",
        "name:en": "Haetsal Mart",
        "name:ko-Latn": "Haetsalmateu",
        "ncat": "마트",
        "shop": "supermarket",
        "source": "http://kr.open.gugi.yahoo.com"
      },
      "geometry": {
        "type": "Point",
        "coordinates": [
          126.875289,
          35.198613
        ]
      },
      "id": "node/368676969"
    },
    {
      "type": "Feature",
      "properties": {
        "@id": "node/368677106",
        "name": "삼라마트 (Samna Mart)",
        "name:en": "Samna Mart",
        "name:ko-Latn": "Samnamateu",
        "ncat": "마트",
        "shop": "supermarket",
        "source": "http://kr.open.gugi.yahoo.com"
      },
      "geometry": {
        "type": "Point",
        "coordinates": [
          126.866064,
          35.173268
        ]
      },
      "id": "node/368677106"
    },
    {
      "type": "Feature",
      "properties": {
        "@id": "node/368677285",
        "name": "미라보마트 (Mirabo Mart)",
        "name:en": "Mirabo Mart",
        "name:ko-Latn": "Mirabomateu",
        "ncat": "마트",
        "shop": "supermarket",
        "source": "http://kr.open.gugi.yahoo.com"
      },
      "geometry": {
        "type": "Point",
        "coordinates": [
          126.8733298,
          35.1819737
        ]
      },
      "id": "node/368677285"
    },
    {
      "type": "Feature",
      "properties": {
        "@id": "node/368677355",
        "name": "장터DC마트",
        "name:en": "Jangteo DC Mart",
        "name:ko-Latn": "Jangteo DC Mateu",
        "ncat": "마트",
        "shop": "supermarket",
        "source": "http://kr.open.gugi.yahoo.com"
      },
      "geometry": {
        "type": "Point",
        "coordinates": [
          126.8763604,
          35.1843993
        ]
      },
      "id": "node/368677355"
    },
    {
      "type": "Feature",
      "properties": {
        "@id": "node/368677551",
        "name": "미래도마트 (Miraedo Mart)",
        "name:en": "Miraedo Mart",
        "name:ko-Latn": "Miraedomateu",
        "ncat": "마트",
        "shop": "supermarket",
        "source": "http://kr.open.gugi.yahoo.com"
      },
      "geometry": {
        "type": "Point",
        "coordinates": [
          126.8484,
          35.192646
        ]
      },
      "id": "node/368677551"
    },
    {
      "type": "Feature",
      "properties": {
        "@id": "node/368677564",
        "name": "행복한마트 (Haengbokhan Mart)",
        "name:en": "Haengbokhan Mart",
        "name:ko-Latn": "Haengbokhanmateu",
        "ncat": "마트",
        "shop": "supermarket",
        "source": "http://kr.open.gugi.yahoo.com"
      },
      "geometry": {
        "type": "Point",
        "coordinates": [
          126.8599661,
          35.1759723
        ]
      },
      "id": "node/368677564"
    },
    {
      "type": "Feature",
      "properties": {
        "@id": "node/368677605",
        "name": "아이파크마트 (Ai Park Mart)",
        "name:en": "Ai Park Mart",
        "name:ko-Latn": "Aipakeumateu",
        "ncat": "마트",
        "shop": "supermarket",
        "source": "http://kr.open.gugi.yahoo.com"
      },
      "geometry": {
        "type": "Point",
        "coordinates": [
          126.870114,
          35.179716
        ]
      },
      "id": "node/368677605"
    },
    {
      "type": "Feature",
      "properties": {
        "@id": "node/368677966",
        "name": "죽림할인마트 (Jungnim Retail Shop)",
        "name:en": "Jungnim Retail Shop",
        "name:ko-Latn": "Jungnimhalinmateu",
        "ncat": "마트",
        "shop": "supermarket",
        "source": "http://kr.open.gugi.yahoo.com"
      },
      "geometry": {
        "type": "Point",
        "coordinates": [
          126.8644123,
          35.1769464
        ]
      },
      "id": "node/368677966"
    },
    {
      "type": "Feature",
      "properties": {
        "@id": "node/368678095",
        "name": "(주)플러스마트 (Peulleoseu Mart)",
        "name:en": "Peulleoseu Mart",
        "name:ko-Latn": "( Ju ) Peulleoseumateu",
        "ncat": "마트",
        "shop": "supermarket",
        "source": "http://kr.open.gugi.yahoo.com"
      },
      "geometry": {
        "type": "Point",
        "coordinates": [
          126.865415,
          35.187596
        ]
      },
      "id": "node/368678095"
    },
    {
      "type": "Feature",
      "properties": {
        "@id": "node/368678143",
        "name": "벽산상설할인마트 (Byeoksansangseol Retail Shop)",
        "name:en": "Byeoksansangseol Retail Shop",
        "name:ko-Latn": "Byeoksansangseolhalinmateu",
        "ncat": "마트",
        "shop": "supermarket",
        "source": "http://kr.open.gugi.yahoo.com"
      },
      "geometry": {
        "type": "Point",
        "coordinates": [
          126.8785188,
          35.1732116
        ]
      },
      "id": "node/368678143"
    },
    {
      "type": "Feature",
      "properties": {
        "@id": "node/368678294",
        "name": "하나꽃마트 (Hanaggoch Mart)",
        "name:en": "Hanaggoch Mart",
        "name:ko-Latn": "Hanaggochmateu",
        "ncat": "마트",
        "shop": "supermarket",
        "source": "http://kr.open.gugi.yahoo.com"
      },
      "geometry": {
        "type": "Point",
        "coordinates": [
          126.850524,
          35.193126
        ]
      },
      "id": "node/368678294"
    },
    {
      "type": "Feature",
      "properties": {
        "@id": "node/368761006",
        "amenity": "hospital",
        "name": "광주연세병원 (Gwangjuyeonse Hospital)",
        "name:en": "Gwangjuyeonse Hospital",
        "name:ko-Latn": "Gwangjuyeonsebyeongwon",
        "ncat": "병원",
        "source": "http://kr.open.gugi.yahoo.com"
      },
      "geometry": {
        "type": "Point",
        "coordinates": [
          126.8598734,
          35.176732
        ]
      },
      "id": "node/368761006"
    },
    {
      "type": "Feature",
      "properties": {
        "@id": "node/368761146",
        "amenity": "hospital",
        "name": "연우가정의학과의원 (Yeonugajeonguihakgwa Clinic)",
        "name:en": "Yeonugajeonguihakgwa Clinic",
        "name:ko-Latn": "Yeonugajeonguihakgwauiwon",
        "ncat": "병원",
        "source": "http://kr.open.gugi.yahoo.com"
      },
      "geometry": {
        "type": "Point",
        "coordinates": [
          126.847833,
          35.189215
        ]
      },
      "id": "node/368761146"
    },
    {
      "type": "Feature",
      "properties": {
        "@id": "node/368761600",
        "amenity": "dentist",
        "name": "동천치과의원 (Dongcheon Dental Clinic)",
        "name:en": "Dongcheon Dental Clinic",
        "name:ko": "동천치과의원",
        "name:ko-Latn": "Dongcheonchigwauiwon",
        "ncat": "치과"
      },
      "geometry": {
        "type": "Point",
        "coordinates": [
          126.858369,
          35.1683004
        ]
      },
      "id": "node/368761600"
    },
    {
      "type": "Feature",
      "properties": {
        "@id": "node/368762157"
      },
      "geometry": {
        "type": "Point",
        "coordinates": [
          126.8768135,
          35.1781041
        ]
      },
      "id": "node/368762157"
    },
    {
      "type": "Feature",
      "properties": {
        "@id": "node/368762211",
        "amenity": "hospital",
        "name": "행복한소아과 (Haengbokhansoagwa)",
        "name:en": "Haengbokhansoagwa",
        "name:ko-Latn": "Haengbokhansoagwa",
        "ncat": "병원",
        "source": "http://kr.open.gugi.yahoo.com"
      },
      "geometry": {
        "type": "Point",
        "coordinates": [
          126.873664,
          35.1760415
        ]
      },
      "id": "node/368762211"
    },
    {
      "type": "Feature",
      "properties": {
        "@id": "node/368762344",
        "amenity": "hospital",
        "name": "미소그린 한의원",
        "name:en": "Miso Green Oriental Medicine Clinic",
        "name:ko-Latn": "Misogeurin Hanuiwon",
        "ncat": "병원",
        "source": "http://kr.open.gugi.yahoo.com"
      },
      "geometry": {
        "type": "Point",
        "coordinates": [
          126.8656508,
          35.1868094
        ]
      },
      "id": "node/368762344"
    },
    {
      "type": "Feature",
      "properties": {
        "@id": "node/368762520",
        "amenity": "hospital",
        "name": "한진노블병원 (Hanjinnobeul Hospital)",
        "name:en": "Hanjinnobeul Hospital",
        "name:ko-Latn": "Hanjinnobeulbyeongwon",
        "ncat": "병원",
        "source": "http://kr.open.gugi.yahoo.com"
      },
      "geometry": {
        "type": "Point",
        "coordinates": [
          126.8505044,
          35.1830872
        ]
      },
      "id": "node/368762520"
    },
    {
      "type": "Feature",
      "properties": {
        "@id": "node/368762721",
        "addr:city": "광주광역시 서구",
        "addr:housenumber": "686",
        "addr:street": "하남대로 (Hanamdaero)",
        "amenity": "hospital",
        "internet_access": "wlan",
        "name": "동림병원",
        "name:en": "Dongnim Hospital",
        "name:ko-Latn": "Dongnimbyeongwon",
        "ncat": "병원",
        "opening_hours": "Mo-Fr 09:00-18:00",
        "phone": "0625106000",
        "source": "http://kr.open.gugi.yahoo.com",
        "website": "http://www.gjdl.kr"
      },
      "geometry": {
        "type": "Point",
        "coordinates": [
          126.8675785,
          35.1716469
        ]
      },
      "id": "node/368762721"
    },
    {
      "type": "Feature",
      "properties": {
        "@id": "node/368762788",
        "amenity": "hospital",
        "name": "동서하나로한방병원 (Dongseohanaro Oriental Medicine Hospital)",
        "name:en": "Dongseohanaro Oriental Medicine Hospital",
        "name:ko-Latn": "Dongseohanarohanbangbyeongwon",
        "ncat": "병원",
        "source": "http://kr.open.gugi.yahoo.com"
      },
      "geometry": {
        "type": "Point",
        "coordinates": [
          126.8739734,
          35.1801452
        ]
      },
      "id": "node/368762788"
    },
    {
      "type": "Feature",
      "properties": {
        "@id": "node/368762893",
        "amenity": "hospital",
        "name": "구승룡이비인후과소아청소년과 (Guseungnyongibiinhugwasoa Youth Gwa)",
        "name:en": "Guseungnyongibiinhugwasoa Youth Gwa",
        "name:ko-Latn": "Guseungnyongibiinhugwasoacheongsonyeongwa",
        "ncat": "병원",
        "source": "http://kr.open.gugi.yahoo.com"
      },
      "geometry": {
        "type": "Point",
        "coordinates": [
          126.8639952,
          35.1773745
        ]
      },
      "id": "node/368762893"
    },
    {
      "type": "Feature",
      "properties": {
        "@id": "node/368763243",
        "amenity": "veterinary",
        "name": "나래동물병원 (Narae Animal Hospital)",
        "name:en": "Narae Animal Hospital",
        "name:ko": "나래동물병원",
        "name:ko-Latn": "Naraedongmulbyeongwon",
        "ncat": "동물병원"
      },
      "geometry": {
        "type": "Point",
        "coordinates": [
          126.87197,
          35.18071
        ]
      },
      "id": "node/368763243"
    },
    {
      "type": "Feature",
      "properties": {
        "@id": "node/368763274",
        "amenity": "veterinary",
        "name": "자연동물병원",
        "name:en": "Jayeon Animal Hospital",
        "name:ko": "자연동물병원",
        "name:ko-Latn": "Jayeondongmulbyeongwon",
        "ncat": "동물병원"
      },
      "geometry": {
        "type": "Point",
        "coordinates": [
          126.8761773,
          35.1779022
        ]
      },
      "id": "node/368763274"
    },
    {
      "type": "Feature",
      "properties": {
        "@id": "node/368763647",
        "amenity": "hospital",
        "name": "이쁘지오 (Ibbeujio)",
        "name:en": "Ibbeujio",
        "name:ko-Latn": "Ibbeujio",
        "ncat": "병원",
        "source": "http://kr.open.gugi.yahoo.com"
      },
      "geometry": {
        "type": "Point",
        "coordinates": [
          126.877386,
          35.184236
        ]
      },
      "id": "node/368763647"
    },
    {
      "type": "Feature",
      "properties": {
        "@id": "node/368763797",
        "amenity": "dentist",
        "name": "한승헌치과",
        "name:en": "Hanseungheon Dental Clinic",
        "name:ko": "한승헌치과",
        "name:ko-Latn": "Hanseungheonchigwa",
        "ncat": "치과"
      },
      "geometry": {
        "type": "Point",
        "coordinates": [
          126.86576,
          35.18749
        ]
      },
      "id": "node/368763797"
    },
    {
      "type": "Feature",
      "properties": {
        "@id": "node/368763810",
        "amenity": "dentist",
        "name": "형치과의원 (Hyeong Dental Clinic)",
        "name:en": "Hyeong Dental Clinic",
        "name:ko": "형치과의원",
        "name:ko-Latn": "Hyeongchigwauiwon",
        "ncat": "치과"
      },
      "geometry": {
        "type": "Point",
        "coordinates": [
          126.8777169,
          35.166032
        ]
      },
      "id": "node/368763810"
    },
    {
      "type": "Feature",
      "properties": {
        "@id": "node/368763818",
        "amenity": "dentist",
        "name": "예담치과 (Yedam Dental Clinic)",
        "name:en": "Yedam Dental Clinic",
        "name:ko": "예담치과",
        "name:ko-Latn": "Yedamchigwa",
        "ncat": "치과"
      },
      "geometry": {
        "type": "Point",
        "coordinates": [
          126.8607775,
          35.1762236
        ]
      },
      "id": "node/368763818"
    },
    {
      "type": "Feature",
      "properties": {
        "@id": "node/368764124",
        "amenity": "dentist",
        "name": "조은치과 (Joeun Dental Clinic)",
        "name:en": "Joeun Dental Clinic",
        "name:ko": "조은치과",
        "name:ko-Latn": "Joeunchigwa",
        "ncat": "치과"
      },
      "geometry": {
        "type": "Point",
        "coordinates": [
          126.8716565,
          35.1979778
        ]
      },
      "id": "node/368764124"
    },
    {
      "type": "Feature",
      "properties": {
        "@id": "node/368764222",
        "amenity": "dentist",
        "name": "라이프치과의원 (Raipeu Dental Clinic)",
        "name:en": "Raipeu Dental Clinic",
        "name:ko": "라이프치과의원",
        "name:ko-Latn": "Raipeuchigwauiwon",
        "ncat": "치과"
      },
      "geometry": {
        "type": "Point",
        "coordinates": [
          126.87486,
          35.17587
        ]
      },
      "id": "node/368764222"
    },
    {
      "type": "Feature",
      "properties": {
        "@id": "node/368764295",
        "amenity": "dentist",
        "name": "동림치과",
        "name:en": "Dongnim Dental Clinic",
        "name:ko": "동림치과",
        "name:ko-Latn": "Dongnimchigwa",
        "ncat": "치과"
      },
      "geometry": {
        "type": "Point",
        "coordinates": [
          126.8658498,
          35.187772
        ]
      },
      "id": "node/368764295"
    },
    {
      "type": "Feature",
      "properties": {
        "@id": "node/368764384",
        "amenity": "dentist",
        "name": "조이치과 (Joi Dental Clinic)",
        "name:en": "Joi Dental Clinic",
        "name:ko": "조이치과",
        "name:ko-Latn": "Joichigwa",
        "ncat": "치과"
      },
      "geometry": {
        "type": "Point",
        "coordinates": [
          126.8594816,
          35.1757858
        ]
      },
      "id": "node/368764384"
    },
    {
      "type": "Feature",
      "properties": {
        "@id": "node/368764792",
        "amenity": "dentist",
        "name": "다사랑치과 (Dasarang Dental Clinic)",
        "name:ko": "다사랑치과",
        "ncat": "치과"
      },
      "geometry": {
        "type": "Point",
        "coordinates": [
          126.86334,
          35.16018
        ]
      },
      "id": "node/368764792"
    },
    {
      "type": "Feature",
      "properties": {
        "@id": "node/368764951",
        "amenity": "dentist",
        "name": "동서하나로치과의원 (Dongseohanaro Dental Clinic)",
        "name:en": "Dongseohanaro Dental Clinic",
        "name:ko": "동서하나로치과의원",
        "name:ko-Latn": "Dongseohanarochigwauiwon",
        "ncat": "치과"
      },
      "geometry": {
        "type": "Point",
        "coordinates": [
          126.8740645,
          35.1802253
        ]
      },
      "id": "node/368764951"
    },
    {
      "type": "Feature",
      "properties": {
        "@id": "node/368765030",
        "amenity": "dentist",
        "name": "전기범치과의원 (Jeongibeom Dental Clinic)",
        "name:en": "Jeongibeom Dental Clinic",
        "name:ko": "전기범치과의원",
        "name:ko-Latn": "Jeongibeomchigwauiwon",
        "ncat": "치과"
      },
      "geometry": {
        "type": "Point",
        "coordinates": [
          126.87136,
          35.18261
        ]
      },
      "id": "node/368765030"
    },
    {
      "type": "Feature",
      "properties": {
        "@id": "node/368765337",
        "amenity": "dentist",
        "name": "E-푸른치과의원",
        "name:en": "E- Pureun Dental Clinic",
        "name:ko": "E-푸른치과의원",
        "name:ko-Latn": "E- Pureunchigwauiwon",
        "ncat": "치과"
      },
      "geometry": {
        "type": "Point",
        "coordinates": [
          126.8656992,
          35.1872495
        ]
      },
      "id": "node/368765337"
    },
    {
      "type": "Feature",
      "properties": {
        "@id": "node/368765371",
        "amenity": "dentist",
        "name": "미보치과의원 (Mibo Dental Clinic)",
        "name:en": "Mibo Dental Clinic",
        "name:ko": "미보치과의원",
        "name:ko-Latn": "Mibochigwauiwon",
        "ncat": "치과"
      },
      "geometry": {
        "type": "Point",
        "coordinates": [
          126.87197,
          35.18071
        ]
      },
      "id": "node/368765371"
    },
    {
      "type": "Feature",
      "properties": {
        "@id": "node/368765764",
        "amenity": "dentist",
        "name": "우리치과 (Uri Dental Clinic)",
        "name:en": "Uri Dental Clinic",
        "name:ko": "우리치과",
        "name:ko-Latn": "Urichigwa",
        "ncat": "치과"
      },
      "geometry": {
        "type": "Point",
        "coordinates": [
          126.8616004,
          35.1762311
        ]
      },
      "id": "node/368765764"
    },
    {
      "type": "Feature",
      "properties": {
        "@id": "node/368765777",
        "amenity": "dentist",
        "name": "늘기쁨치과 (Neulgibbeum Dental Clinic)",
        "name:en": "Neulgibbeum Dental Clinic",
        "name:ko": "늘기쁨치과",
        "name:ko-Latn": "Neulgibbeumchigwa",
        "ncat": "치과"
      },
      "geometry": {
        "type": "Point",
        "coordinates": [
          126.87184,
          35.19715
        ]
      },
      "id": "node/368765777"
    },
    {
      "type": "Feature",
      "properties": {
        "@id": "node/368765995",
        "amenity": "dentist",
        "name": "허웅치과의원 (Heoung Dental Clinic)",
        "name:en": "Heoung Dental Clinic",
        "name:ko": "허웅치과의원",
        "name:ko-Latn": "Heoungchigwauiwon",
        "ncat": "치과"
      },
      "geometry": {
        "type": "Point",
        "coordinates": [
          126.8619476,
          35.164171
        ]
      },
      "id": "node/368765995"
    },
    {
      "type": "Feature",
      "properties": {
        "@id": "node/368766155",
        "amenity": "dentist",
        "name": "버들치과 (Beodeul Dental Clinic)",
        "name:en": "Beodeul Dental Clinic",
        "name:ko": "버들치과",
        "name:ko-Latn": "Beodeulchigwa",
        "ncat": "치과"
      },
      "geometry": {
        "type": "Point",
        "coordinates": [
          126.8615006,
          35.1646079
        ]
      },
      "id": "node/368766155"
    },
    {
      "type": "Feature",
      "properties": {
        "@id": "node/368766572",
        "amenity": "dentist",
        "name": "운암가족치과의원 (Unamgajok Dental Clinic)",
        "name:en": "Unamgajok Dental Clinic",
        "name:ko": "운암가족치과의원",
        "name:ko-Latn": "Unamgajokchigwauiwon",
        "ncat": "치과"
      },
      "geometry": {
        "type": "Point",
        "coordinates": [
          126.8778203,
          35.1892727
        ]
      },
      "id": "node/368766572"
    },
    {
      "type": "Feature",
      "properties": {
        "@id": "node/368766745",
        "amenity": "dentist",
        "name": "김재덕치과의원 (Gimjaedeok Dental Clinic)",
        "name:en": "Gimjaedeok Dental Clinic",
        "name:ko": "김재덕치과의원",
        "name:ko-Latn": "Gimjaedeokchigwauiwon",
        "ncat": "치과"
      },
      "geometry": {
        "type": "Point",
        "coordinates": [
          126.8603533,
          35.1645581
        ]
      },
      "id": "node/368766745"
    },
    {
      "type": "Feature",
      "properties": {
        "@id": "node/368766893",
        "amenity": "hospital",
        "name": "마디의원 (Madi Clinic)",
        "name:en": "Madi Clinic",
        "name:ko-Latn": "Madiuiwon",
        "ncat": "병원",
        "source": "http://kr.open.gugi.yahoo.com"
      },
      "geometry": {
        "type": "Point",
        "coordinates": [
          126.8595335,
          35.1752419
        ]
      },
      "id": "node/368766893"
    },
    {
      "type": "Feature",
      "properties": {
        "@id": "node/368767038",
        "amenity": "dentist",
        "name": "스위트치과의원 (Seuwiteu Dental Clinic)",
        "name:en": "Seuwiteu Dental Clinic",
        "name:ko": "스위트치과의원",
        "name:ko-Latn": "Seuwiteuchigwauiwon",
        "ncat": "치과"
      },
      "geometry": {
        "type": "Point",
        "coordinates": [
          126.8640349,
          35.1774419
        ]
      },
      "id": "node/368767038"
    },
    {
      "type": "Feature",
      "properties": {
        "@id": "node/368767061",
        "amenity": "hospital",
        "name": "주사랑의원 (Jusarang Clinic)",
        "name:en": "Jusarang Clinic",
        "name:ko-Latn": "Jusaranguiwon",
        "ncat": "병원",
        "source": "http://kr.open.gugi.yahoo.com"
      },
      "geometry": {
        "type": "Point",
        "coordinates": [
          126.860352,
          35.177149
        ]
      },
      "id": "node/368767061"
    },
    {
      "type": "Feature",
      "properties": {
        "@id": "node/368767090",
        "amenity": "hospital",
        "name": "미래이비인후과 (Mirae Ear, Nose, & Throat Clinic)",
        "ncat": "병원",
        "source": "http://kr.open.gugi.yahoo.com"
      },
      "geometry": {
        "type": "Point",
        "coordinates": [
          126.862414,
          35.160154
        ]
      },
      "id": "node/368767090"
    },
    {
      "type": "Feature",
      "properties": {
        "@id": "node/368767153",
        "amenity": "hospital",
        "name": "조소아과의원",
        "name:en": "Josoagwa Clinic",
        "name:ko-Latn": "Josoagwauiwon",
        "ncat": "병원",
        "source": "http://kr.open.gugi.yahoo.com"
      },
      "geometry": {
        "type": "Point",
        "coordinates": [
          126.861253,
          35.1646254
        ]
      },
      "id": "node/368767153"
    },
    {
      "type": "Feature",
      "properties": {
        "@id": "node/368767245",
        "amenity": "hospital",
        "name": "동림가정의원",
        "name:en": "Dongnimgajeong Clinic",
        "name:ko-Latn": "Dongnimgajeonguiwon",
        "ncat": "병원",
        "source": "http://kr.open.gugi.yahoo.com"
      },
      "geometry": {
        "type": "Point",
        "coordinates": [
          126.8658402,
          35.1877064
        ]
      },
      "id": "node/368767245"
    },
    {
      "type": "Feature",
      "properties": {
        "@id": "node/368839681",
        "amenity": "hospital",
        "name": "나래물병원 (Naraemul Hospital)",
        "name:en": "Naraemul Hospital",
        "name:ko-Latn": "Naraemulbyeongwon",
        "ncat": "병원",
        "source": "http://kr.open.gugi.yahoo.com"
      },
      "geometry": {
        "type": "Point",
        "coordinates": [
          126.871966,
          35.180715
        ]
      },
      "id": "node/368839681"
    },
    {
      "type": "Feature",
      "properties": {
        "@id": "node/368867091",
        "name": "기아수영장 (Gia Swimming Pool)",
        "name:en": "Gia Swimming Pool",
        "name:ko-Latn": "Giasuyeongjang",
        "ncat": "수영장",
        "source": "http://kr.open.gugi.yahoo.com",
        "sport": "swimming"
      },
      "geometry": {
        "type": "Point",
        "coordinates": [
          126.8764237,
          35.1645671
        ]
      },
      "id": "node/368867091"
    },
    {
      "type": "Feature",
      "properties": {
        "@id": "node/368872439",
        "name": "에리트경영연구소",
        "name:en": "Eriteugyeongyeong Research Institute",
        "name:ko-Latn": "Eriteugyeongyeongyeonguso",
        "ncat": "연구소",
        "source": "http://kr.open.gugi.yahoo.com"
      },
      "geometry": {
        "type": "Point",
        "coordinates": [
          126.8695085,
          35.1755068
        ]
      },
      "id": "node/368872439"
    },
    {
      "type": "Feature",
      "properties": {
        "@id": "node/368886843",
        "amenity": "kindergarten",
        "name": "이화유치원",
        "name:en": "Ihwa Kindergarten",
        "name:ko": "이화유치원",
        "name:ko-Latn": "Ihwayuchiwon",
        "ncat": "유치원",
        "source": "http://kr.open.gugi.yahoo.com"
      },
      "geometry": {
        "type": "Point",
        "coordinates": [
          126.874306,
          35.174301
        ]
      },
      "id": "node/368886843"
    },
    {
      "type": "Feature",
      "properties": {
        "@id": "node/368886876",
        "amenity": "kindergarten",
        "name": "성덕유치원",
        "name:en": "Seongdeok Kindergarten",
        "name:ko": "성덕유치원",
        "name:ko-Latn": "Seongdeokyuchiwon",
        "ncat": "유치원",
        "source": "http://kr.open.gugi.yahoo.com"
      },
      "geometry": {
        "type": "Point",
        "coordinates": [
          126.876724,
          35.180462
        ]
      },
      "id": "node/368886876"
    },
    {
      "type": "Feature",
      "properties": {
        "@id": "node/368886930",
        "amenity": "kindergarten",
        "name": "서강유치원",
        "name:en": "Seogang Kindergarten",
        "name:ko-Latn": "Seogangyuchiwon",
        "ncat": "유치원",
        "source": "http://kr.open.gugi.yahoo.com"
      },
      "geometry": {
        "type": "Point",
        "coordinates": [
          126.8680219,
          35.1769696
        ]
      },
      "id": "node/368886930"
    },
    {
      "type": "Feature",
      "properties": {
        "@id": "node/368886963",
        "amenity": "kindergarten",
        "name": "운암유치원",
        "name:en": "Unam Kindergarten",
        "name:ko": "운암유치원",
        "name:ko-Latn": "Unamyuchiwon",
        "ncat": "유치원",
        "source": "http://kr.open.gugi.yahoo.com"
      },
      "geometry": {
        "type": "Point",
        "coordinates": [
          126.8762942,
          35.1792085
        ]
      },
      "id": "node/368886963"
    },
    {
      "type": "Feature",
      "properties": {
        "@id": "node/368887054",
        "amenity": "kindergarten",
        "name": "새롬유치원",
        "name:en": "Saerom Kindergarten",
        "name:ko": "새롬유치원",
        "name:ko-Latn": "Saeromyuchiwon",
        "ncat": "유치원",
        "source": "http://kr.open.gugi.yahoo.com"
      },
      "geometry": {
        "type": "Point",
        "coordinates": [
          126.8789422,
          35.1729434
        ]
      },
      "id": "node/368887054"
    },
    {
      "type": "Feature",
      "properties": {
        "@id": "node/368887086",
        "amenity": "kindergarten",
        "name": "서광주유치원",
        "name:en": "Seogwangju Kindergarten",
        "name:ko-Latn": "Seogwangjuyuchiwon",
        "ncat": "유치원",
        "source": "http://kr.open.gugi.yahoo.com"
      },
      "geometry": {
        "type": "Point",
        "coordinates": [
          126.8782195,
          35.1671881
        ]
      },
      "id": "node/368887086"
    },
    {
      "type": "Feature",
      "properties": {
        "@id": "node/368887099",
        "amenity": "kindergarten",
        "name": "굿모닝유치원",
        "name:en": "Good Morning Kindergarten",
        "name:ko": "굿모닝유치원",
        "name:ko-Latn": "Gutmoningyuchiwon",
        "ncat": "유치원",
        "source": "http://kr.open.gugi.yahoo.com"
      },
      "geometry": {
        "type": "Point",
        "coordinates": [
          126.8613102,
          35.1641796
        ]
      },
      "id": "node/368887099"
    },
    {
      "type": "Feature",
      "properties": {
        "@id": "node/368887166",
        "amenity": "kindergarten",
        "name": "광천교회유치원",
        "name:en": "Gwangcheon Church Kindergarten",
        "name:ko": "광천교회유치원",
        "name:ko-Latn": "Gwangcheongyohoeyuchiwon",
        "ncat": "유치원",
        "source": "http://kr.open.gugi.yahoo.com"
      },
      "geometry": {
        "type": "Point",
        "coordinates": [
          126.8633175,
          35.1675477
        ]
      },
      "id": "node/368887166"
    },
    {
      "type": "Feature",
      "properties": {
        "@id": "node/368887183",
        "addr:city": "광주광역시 북구",
        "addr:housenumber": "43",
        "addr:street": "북문대로242번길",
        "amenity": "kindergarten",
        "name": "아이세상유치원",
        "name:en": "Aisesang Kindergarten",
        "name:ko": "아이세상유치원",
        "name:ko-Latn": "Aisesangyuchiwon",
        "ncat": "유치원",
        "phone": "0625139559",
        "source": "http://kr.open.gugi.yahoo.com"
      },
      "geometry": {
        "type": "Point",
        "coordinates": [
          126.8654778,
          35.1903306
        ]
      },
      "id": "node/368887183"
    },
    {
      "type": "Feature",
      "properties": {
        "@id": "node/368896080",
        "amenity": "bank",
        "atm": "yes",
        "name": "국민은행 (Gungmin Bank)",
        "ncat": "은행",
        "source": "http://kr.open.gugi.yahoo.com"
      },
      "geometry": {
        "type": "Point",
        "coordinates": [
          126.863364,
          35.160577
        ]
      },
      "id": "node/368896080"
    },
    {
      "type": "Feature",
      "properties": {
        "@id": "node/368896108",
        "amenity": "bank",
        "atm": "yes",
        "name": "하나은행 (Hana Bank)",
        "name:en": "Hana Bank",
        "name:ko-Latn": "Hanaeunhaeng",
        "ncat": "은행",
        "source": "http://kr.open.gugi.yahoo.com"
      },
      "geometry": {
        "type": "Point",
        "coordinates": [
          126.8601996,
          35.1755272
        ]
      },
      "id": "node/368896108"
    },
    {
      "type": "Feature",
      "properties": {
        "@id": "node/368896214",
        "amenity": "bank",
        "atm": "yes",
        "name": "광주은행",
        "name:en": "Gwangju Bank",
        "name:ko-Latn": "Gwangjueunhaeng",
        "ncat": "은행",
        "source": "http://kr.open.gugi.yahoo.com"
      },
      "geometry": {
        "type": "Point",
        "coordinates": [
          126.8759449,
          35.1786526
        ]
      },
      "id": "node/368896214"
    },
    {
      "type": "Feature",
      "properties": {
        "@id": "node/368896320",
        "amenity": "bank",
        "atm": "yes",
        "name": "광주은행 (Gwangju Bank)",
        "name:en": "Gwangju Bank",
        "name:ko-Latn": "Gwangjueunhaeng",
        "ncat": "은행",
        "source": "http://kr.open.gugi.yahoo.com"
      },
      "geometry": {
        "type": "Point",
        "coordinates": [
          126.863687,
          35.1776855
        ]
      },
      "id": "node/368896320"
    },
    {
      "type": "Feature",
      "properties": {
        "@id": "node/368900996",
        "amenity": "townhall",
        "name": "운암1동 주민센터 (Unam 1 Dong Community Service Center)",
        "name:en": "Unam 1 Dong Community Service Center",
        "name:ko-Latn": "Unam 1 Dong Juminsenteo",
        "ncat": "주민센터",
        "source": "http://kr.open.gugi.yahoo.com"
      },
      "geometry": {
        "type": "Point",
        "coordinates": [
          126.8745277,
          35.1748895
        ]
      },
      "id": "node/368900996"
    },
    {
      "type": "Feature",
      "properties": {
        "@id": "node/368901035",
        "amenity": "townhall",
        "name": "동림동주민센터",
        "name:en": "Dongnimdong Community Service Center",
        "name:ko-Latn": "Dongnimdongjuminsenteo",
        "ncat": "주민센터",
        "source": "http://kr.open.gugi.yahoo.com"
      },
      "geometry": {
        "type": "Point",
        "coordinates": [
          126.8666223,
          35.187021
        ]
      },
      "id": "node/368901035"
    },
    {
      "type": "Feature",
      "properties": {
        "@id": "node/368910264",
        "amenity": "fuel",
        "name": "신창주유소 (Sinchang Gas Station)",
        "name:en": "Sinchang Gas Station",
        "name:ko-Latn": "Sinchangjuyuso",
        "ncat": "주유소",
        "source": "http://kr.open.gugi.yahoo.com"
      },
      "geometry": {
        "type": "Point",
        "coordinates": [
          126.8453096,
          35.19315
        ]
      },
      "id": "node/368910264"
    },
    {
      "type": "Feature",
      "properties": {
        "@id": "node/368910384",
        "amenity": "fuel",
        "name": "광장주유소 (Plaza Gas Station)",
        "name:en": "Plaza Gas Station",
        "name:ko-Latn": "Gwangjangjuyuso",
        "ncat": "주유소",
        "source": "http://kr.open.gugi.yahoo.com"
      },
      "geometry": {
        "type": "Point",
        "coordinates": [
          126.8777306,
          35.1712529
        ]
      },
      "id": "node/368910384"
    },
    {
      "type": "Feature",
      "properties": {
        "@id": "node/368910446",
        "amenity": "fuel",
        "name": "대호주유소 (Daeho Gas Station)",
        "name:en": "Daeho Gas Station",
        "name:ko-Latn": "Daehojuyuso",
        "ncat": "주유소",
        "source": "http://kr.open.gugi.yahoo.com"
      },
      "geometry": {
        "type": "Point",
        "coordinates": [
          126.873483,
          35.180576
        ]
      },
      "id": "node/368910446"
    },
    {
      "type": "Feature",
      "properties": {
        "@id": "node/368910491",
        "amenity": "fuel",
        "name": "보건주유소 (Bogeon Gas Station)",
        "name:en": "Bogeon Gas Station",
        "name:ko-Latn": "Bogeonjuyuso",
        "ncat": "주유소",
        "source": "http://kr.open.gugi.yahoo.com"
      },
      "geometry": {
        "type": "Point",
        "coordinates": [
          126.852891,
          35.19112
        ]
      },
      "id": "node/368910491"
    },
    {
      "type": "Feature",
      "properties": {
        "@id": "node/368910496",
        "amenity": "fuel",
        "name": "대호주유소",
        "name:en": "Daeho Gas Station",
        "name:ko-Latn": "Daehojuyuso",
        "ncat": "주유소",
        "source": "http://kr.open.gugi.yahoo.com"
      },
      "geometry": {
        "type": "Point",
        "coordinates": [
          126.8708027,
          35.1838942
        ]
      },
      "id": "node/368910496"
    },
    {
      "type": "Feature",
      "properties": {
        "@id": "node/368910576",
        "amenity": "fuel",
        "name": "굿모닝주유소 (Good Morning Gas Station)",
        "name:en": "Good Morning Gas Station",
        "name:ko-Latn": "Gutmoningjuyuso",
        "ncat": "주유소",
        "source": "http://kr.open.gugi.yahoo.com"
      },
      "geometry": {
        "type": "Point",
        "coordinates": [
          126.850579,
          35.191567
        ]
      },
      "id": "node/368910576"
    },
    {
      "type": "Feature",
      "properties": {
        "@id": "node/368910744",
        "amenity": "fuel",
        "name": "대공원주유소 (Grand Park Gas Station)",
        "name:en": "Grand Park Gas Station",
        "name:ko-Latn": "Daegongwonjuyuso",
        "ncat": "주유소",
        "source": "http://kr.open.gugi.yahoo.com"
      },
      "geometry": {
        "type": "Point",
        "coordinates": [
          126.850342,
          35.191979
        ]
      },
      "id": "node/368910744"
    },
    {
      "type": "Feature",
      "properties": {
        "@id": "node/368910981",
        "amenity": "fuel",
        "name": "SK네트윅스양산주유소 (SK Neteuwikseuyangsan Gas Station)",
        "name:en": "SK Neteuwikseuyangsan Gas Station",
        "name:ko-Latn": "SK Neteuwikseuyangsanjuyuso",
        "ncat": "주유소",
        "source": "http://kr.open.gugi.yahoo.com"
      },
      "geometry": {
        "type": "Point",
        "coordinates": [
          126.8760541,
          35.1980096
        ]
      },
      "id": "node/368910981"
    },
    {
      "type": "Feature",
      "properties": {
        "@id": "node/368911076",
        "amenity": "fuel",
        "name": "대광주유소 (Daegwang Gas Station)",
        "name:en": "Daegwang Gas Station",
        "name:ko-Latn": "Daegwangjuyuso",
        "ncat": "주유소",
        "source": "http://kr.open.gugi.yahoo.com"
      },
      "geometry": {
        "type": "Point",
        "coordinates": [
          126.853342,
          35.173059
        ]
      },
      "id": "node/368911076"
    },
    {
      "type": "Feature",
      "properties": {
        "@id": "node/368923674",
        "amenity": "school",
        "name": "광주체육중학교",
        "name:en": "Gwangjucheyuk Middle School",
        "name:ko-Latn": "Gwangjucheyukjunghakgyo",
        "ncat": "중학교",
        "source": "http://kr.open.gugi.yahoo.com"
      },
      "geometry": {
        "type": "Point",
        "coordinates": [
          126.879367,
          35.181532
        ]
      },
      "id": "node/368923674"
    },
    {
      "type": "Feature",
      "properties": {
        "@id": "node/368933152",
        "amenity": "school",
        "name": "한울초등학교",
        "name:en": "Hanul Elementary School",
        "name:ko-Latn": "Hanulchodeunghakgyo",
        "ncat": "초등학교",
        "source": "http://kr.open.gugi.yahoo.com"
      },
      "geometry": {
        "type": "Point",
        "coordinates": [
          126.8663248,
          35.1759297
        ]
      },
      "id": "node/368933152"
    },
    {
      "type": "Feature",
      "properties": {
        "@id": "node/368933167",
        "amenity": "school",
        "name": "빛고을초등학교",
        "name:en": "Bickoeul Elementary School",
        "name:ko-Latn": "Bickoeulchodeunghakgyo",
        "ncat": "초등학교",
        "source": "http://kr.open.gugi.yahoo.com"
      },
      "geometry": {
        "type": "Point",
        "coordinates": [
          126.8593958,
          35.1691207
        ]
      },
      "id": "node/368933167"
    },
    {
      "type": "Feature",
      "properties": {
        "@id": "node/368933233",
        "amenity": "school",
        "name": "광주운암초등학교",
        "name:en": "Gwangjuunam Elementary School",
        "name:ko-Latn": "Gwangjuunamchodeunghakgyo",
        "ncat": "초등학교",
        "source": "http://kr.open.gugi.yahoo.com"
      },
      "geometry": {
        "type": "Point",
        "coordinates": [
          126.8708147,
          35.1806282
        ]
      },
      "id": "node/368933233"
    },
    {
      "type": "Feature",
      "properties": {
        "@id": "node/368952351",
        "name": "리젠트관광호텔 (Regent Tourist Hotel)",
        "name:en": "Regent Tourist Hotel",
        "name:ko-Latn": "Rijenteugwangwanghotel",
        "ncat": "호텔",
        "source": "http://kr.open.gugi.yahoo.com",
        "tourism": "hotel"
      },
      "geometry": {
        "type": "Point",
        "coordinates": [
          126.877848,
          35.1781114
        ]
      },
      "id": "node/368952351"
    },
    {
      "type": "Feature",
      "properties": {
        "@id": "node/370781225",
        "highway": "traffic_signals",
        "name": "금호타운앞 (Geumho Town Front)",
        "name:en": "Geumho Town Front",
        "name:ko-Latn": "Geumhotaunap",
        "ncat": "교차로및지명",
        "source": "mp2osm",
        "traffic_signals": "signal"
      },
      "geometry": {
        "type": "Point",
        "coordinates": [
          126.87333,
          35.1815827
        ]
      },
      "id": "node/370781225"
    },
    {
      "type": "Feature",
      "properties": {
        "@id": "node/370781231"
      },
      "geometry": {
        "type": "Point",
        "coordinates": [
          126.867955,
          35.1863292
        ]
      },
      "id": "node/370781231"
    },
    {
      "type": "Feature",
      "properties": {
        "@id": "node/370781235",
        "highway": "traffic_signals",
        "traffic_signals": "signal"
      },
      "geometry": {
        "type": "Point",
        "coordinates": [
          126.8555369,
          35.1901414
        ]
      },
      "id": "node/370781235"
    },
    {
      "type": "Feature",
      "properties": {
        "@id": "node/370781501"
      },
      "geometry": {
        "type": "Point",
        "coordinates": [
          126.8790065,
          35.1766714
        ]
      },
      "id": "node/370781501"
    },
    {
      "type": "Feature",
      "properties": {
        "@id": "node/414681435",
        "name": "본촌산단사거리 (Bonchonsandan Crossroad)",
        "name:en": "Bonchonsandan Crossroad",
        "name:ko-Latn": "Bonchonsandansageori",
        "ncat": "교차로및지명",
        "source": "mp2osm"
      },
      "geometry": {
        "type": "Point",
        "coordinates": [
          126.8766464,
          35.197799
        ]
      },
      "id": "node/414681435"
    },
    {
      "type": "Feature",
      "properties": {
        "@id": "node/414681440",
        "name": "서광주IC (서측) (Seogwangju IC ( Seocheuk ))",
        "name:en": "Seogwangju IC ( Seocheuk )",
        "name:ko-Latn": "Seogwangju IC ( Seocheuk )",
        "ncat": "교차로및지명",
        "source": "mp2osm"
      },
      "geometry": {
        "type": "Point",
        "coordinates": [
          126.87997,
          35.18532
        ]
      },
      "id": "node/414681440"
    },
    {
      "type": "Feature",
      "properties": {
        "@id": "node/414681442",
        "name": "운암사거리 (Unam Crossroad)",
        "name:en": "Unam Crossroad",
        "name:ko-Latn": "Unamsageori",
        "ncat": "교차로및지명",
        "source": "mp2osm"
      },
      "geometry": {
        "type": "Point",
        "coordinates": [
          126.8790947,
          35.1766977
        ]
      },
      "id": "node/414681442"
    },
    {
      "type": "Feature",
      "properties": {
        "@id": "node/414681447",
        "name": "서강정보대 (Seogangjeongbodae)",
        "name:en": "Seogangjeongbodae",
        "name:ko-Latn": "Seogangjeongbodae",
        "ncat": "교차로및지명",
        "source": "mp2osm"
      },
      "geometry": {
        "type": "Point",
        "coordinates": [
          126.87091,
          35.1765
        ]
      },
      "id": "node/414681447"
    },
    {
      "type": "Feature",
      "properties": {
        "@id": "node/414681449",
        "name": "광암고가교시점 (Gwangamgogagyosijeom)",
        "name:en": "Gwangamgogagyosijeom",
        "name:ko-Latn": "Gwangamgogagyosijeom",
        "ncat": "교차로및지명",
        "source": "mp2osm"
      },
      "geometry": {
        "type": "Point",
        "coordinates": [
          126.877765,
          35.1745336
        ]
      },
      "id": "node/414681449"
    },
    {
      "type": "Feature",
      "properties": {
        "@id": "node/414681659",
        "name": "유덕교차로 (Yudeokgyocharo)",
        "name:en": "Yudeokgyocharo",
        "name:ko-Latn": "Yudeokgyocharo",
        "ncat": "교차로및지명",
        "source": "mp2osm"
      },
      "geometry": {
        "type": "Point",
        "coordinates": [
          126.8559271,
          35.1626523
        ]
      },
      "id": "node/414681659"
    },
    {
      "type": "Feature",
      "properties": {
        "@id": "node/414681660",
        "highway": "traffic_signals",
        "name": "상무주공아파트앞 (Sangmujugong Apt. Front)",
        "ncat": "교차로및지명",
        "source": "mp2osm",
        "traffic_signals": "signal"
      },
      "geometry": {
        "type": "Point",
        "coordinates": [
          126.8633704,
          35.1619799
        ]
      },
      "id": "node/414681660"
    },
    {
      "type": "Feature",
      "properties": {
        "@id": "node/414681792",
        "name": "죽림지하차도시작 (Jungnimjihachadosijak)",
        "name:en": "Jungnimjihachadosijak",
        "name:ko-Latn": "Jungnimjihachadosijak",
        "ncat": "교차로및지명",
        "source": "mp2osm"
      },
      "geometry": {
        "type": "Point",
        "coordinates": [
          126.86297,
          35.17316
        ]
      },
      "id": "node/414681792"
    },
    {
      "type": "Feature",
      "properties": {
        "@id": "node/414681806",
        "bridge": "yes",
        "bridge:name": "동림교 (Dongnimgyo)",
        "bridge:name:en": "Dongnimgyo",
        "bridge:name:ko-Latn": "Dongnimgyo",
        "layer": "1",
        "ncat:bridge": "교차로및지명"
      },
      "geometry": {
        "type": "Point",
        "coordinates": [
          126.86415,
          35.17586
        ]
      },
      "id": "node/414681806"
    },
    {
      "type": "Feature",
      "properties": {
        "@id": "node/415146251",
        "name": "신창동",
        "name:en": "Sinchang-dong",
        "name:ko": "신창동",
        "name:ko-Latn": "Sinchang-dong",
        "ncat": "교차로및지명",
        "place": "village",
        "source": "mp2osm"
      },
      "geometry": {
        "type": "Point",
        "coordinates": [
          126.8467735,
          35.1901594
        ]
      },
      "id": "node/415146251"
    },
    {
      "type": "Feature",
      "properties": {
        "@id": "node/415146253",
        "name": "동림동",
        "name:en": "Dongnim-dong",
        "name:ko": "동림동",
        "name:ko-Latn": "Dongnim-dong",
        "ncat": "교차로및지명",
        "place": "village",
        "source": "mp2osm"
      },
      "geometry": {
        "type": "Point",
        "coordinates": [
          126.8592181,
          35.1787772
        ]
      },
      "id": "node/415146253"
    },
    {
      "type": "Feature",
      "properties": {
        "@id": "node/415146259",
        "name": "유촌동",
        "name:en": "Yuchon-dong",
        "name:ko": "유촌동",
        "name:ko-Latn": "Yuchon-dong",
        "ncat": "교차로및지명",
        "place": "village",
        "source": "mp2osm"
      },
      "geometry": {
        "type": "Point",
        "coordinates": [
          126.851776,
          35.1643042
        ]
      },
      "id": "node/415146259"
    },
    {
      "type": "Feature",
      "properties": {
        "@id": "node/415146298",
        "name": "운암동",
        "name:en": "Unam-dong",
        "name:ko": "운암동",
        "name:ko-Latn": "Unam-dong",
        "ncat": "교차로및지명",
        "place": "village",
        "source": "mp2osm"
      },
      "geometry": {
        "type": "Point",
        "coordinates": [
          126.8781672,
          35.1779432
        ]
      },
      "id": "node/415146298"
    },
    {
      "type": "Feature",
      "properties": {
        "@id": "node/436355550"
      },
      "geometry": {
        "type": "Point",
        "coordinates": [
          126.8436022,
          35.1998409
        ]
      },
      "id": "node/436355550"
    },
    {
      "type": "Feature",
      "properties": {
        "@id": "node/436355552"
      },
      "geometry": {
        "type": "Point",
        "coordinates": [
          126.8459155,
          35.1979094
        ]
      },
      "id": "node/436355552"
    },
    {
      "type": "Feature",
      "properties": {
        "@id": "node/436355556"
      },
      "geometry": {
        "type": "Point",
        "coordinates": [
          126.8473719,
          35.1967227
        ]
      },
      "id": "node/436355556"
    },
    {
      "type": "Feature",
      "properties": {
        "@id": "node/436355558"
      },
      "geometry": {
        "type": "Point",
        "coordinates": [
          126.8480462,
          35.1961673
        ]
      },
      "id": "node/436355558"
    },
    {
      "type": "Feature",
      "properties": {
        "@id": "node/436355560"
      },
      "geometry": {
        "type": "Point",
        "coordinates": [
          126.8492797,
          35.1951574
        ]
      },
      "id": "node/436355560"
    },
    {
      "type": "Feature",
      "properties": {
        "@id": "node/436355562"
      },
      "geometry": {
        "type": "Point",
        "coordinates": [
          126.8499524,
          35.1946776
        ]
      },
      "id": "node/436355562"
    },
    {
      "type": "Feature",
      "properties": {
        "@id": "node/436355564"
      },
      "geometry": {
        "type": "Point",
        "coordinates": [
          126.8504483,
          35.1943603
        ]
      },
      "id": "node/436355564"
    },
    {
      "type": "Feature",
      "properties": {
        "@id": "node/436355676"
      },
      "geometry": {
        "type": "Point",
        "coordinates": [
          126.8689163,
          35.192418
        ]
      },
      "id": "node/436355676"
    },
    {
      "type": "Feature",
      "properties": {
        "@id": "node/436355678"
      },
      "geometry": {
        "type": "Point",
        "coordinates": [
          126.8701334,
          35.1919467
        ]
      },
      "id": "node/436355678"
    },
    {
      "type": "Feature",
      "properties": {
        "@id": "node/436355680"
      },
      "geometry": {
        "type": "Point",
        "coordinates": [
          126.8706549,
          35.1917052
        ]
      },
      "id": "node/436355680"
    },
    {
      "type": "Feature",
      "properties": {
        "@id": "node/436355682"
      },
      "geometry": {
        "type": "Point",
        "coordinates": [
          126.8715793,
          35.1912563
        ]
      },
      "id": "node/436355682"
    },
    {
      "type": "Feature",
      "properties": {
        "@id": "node/436355684"
      },
      "geometry": {
        "type": "Point",
        "coordinates": [
          126.8726304,
          35.1907276
        ]
      },
      "id": "node/436355684"
    },
    {
      "type": "Feature",
      "properties": {
        "@id": "node/436355688"
      },
      "geometry": {
        "type": "Point",
        "coordinates": [
          126.8739563,
          35.1900214
        ]
      },
      "id": "node/436355688"
    },
    {
      "type": "Feature",
      "properties": {
        "@id": "node/436355692"
      },
      "geometry": {
        "type": "Point",
        "coordinates": [
          126.8769826,
          35.1880331
        ]
      },
      "id": "node/436355692"
    },
    {
      "type": "Feature",
      "properties": {
        "@id": "node/436355699"
      },
      "geometry": {
        "type": "Point",
        "coordinates": [
          126.8782425,
          35.1865063
        ]
      },
      "id": "node/436355699"
    },
    {
      "type": "Feature",
      "properties": {
        "@id": "node/436355701"
      },
      "geometry": {
        "type": "Point",
        "coordinates": [
          126.8787327,
          35.1860062
        ]
      },
      "id": "node/436355701"
    },
    {
      "type": "Feature",
      "properties": {
        "@id": "node/436355703"
      },
      "geometry": {
        "type": "Point",
        "coordinates": [
          126.8793316,
          35.1855341
        ]
      },
      "id": "node/436355703"
    },
    {
      "type": "Feature",
      "properties": {
        "@id": "node/436355857"
      },
      "geometry": {
        "type": "Point",
        "coordinates": [
          126.8799502,
          35.1853865
        ]
      },
      "id": "node/436355857"
    },
    {
      "type": "Feature",
      "properties": {
        "@id": "node/436355858"
      },
      "geometry": {
        "type": "Point",
        "coordinates": [
          126.8793944,
          35.1856952
        ]
      },
      "id": "node/436355858"
    },
    {
      "type": "Feature",
      "properties": {
        "@id": "node/436355859"
      },
      "geometry": {
        "type": "Point",
        "coordinates": [
          126.8787945,
          35.1861689
        ]
      },
      "id": "node/436355859"
    },
    {
      "type": "Feature",
      "properties": {
        "@id": "node/436355860"
      },
      "geometry": {
        "type": "Point",
        "coordinates": [
          126.8770432,
          35.1881622
        ]
      },
      "id": "node/436355860"
    },
    {
      "type": "Feature",
      "properties": {
        "@id": "node/436355861"
      },
      "geometry": {
        "type": "Point",
        "coordinates": [
          126.8740065,
          35.1901398
        ]
      },
      "id": "node/436355861"
    },
    {
      "type": "Feature",
      "properties": {
        "@id": "node/436355862"
      },
      "geometry": {
        "type": "Point",
        "coordinates": [
          126.8727731,
          35.1907778
        ]
      },
      "id": "node/436355862"
    },
    {
      "type": "Feature",
      "properties": {
        "@id": "node/436355863"
      },
      "geometry": {
        "type": "Point",
        "coordinates": [
          126.871919,
          35.1912262
        ]
      },
      "id": "node/436355863"
    },
    {
      "type": "Feature",
      "properties": {
        "@id": "node/436355864"
      },
      "geometry": {
        "type": "Point",
        "coordinates": [
          126.8714845,
          35.1914385
        ]
      },
      "id": "node/436355864"
    },
    {
      "type": "Feature",
      "properties": {
        "@id": "node/436355865"
      },
      "geometry": {
        "type": "Point",
        "coordinates": [
          126.8708801,
          35.1917576
        ]
      },
      "id": "node/436355865"
    },
    {
      "type": "Feature",
      "properties": {
        "@id": "node/436355866"
      },
      "geometry": {
        "type": "Point",
        "coordinates": [
          126.8700804,
          35.1921285
        ]
      },
      "id": "node/436355866"
    },
    {
      "type": "Feature",
      "properties": {
        "@id": "node/436355867",
        "highway": "motorway_junction",
        "name": "동림IC",
        "name:en": "Donglim IC",
        "ref": "13"
      },
      "geometry": {
        "type": "Point",
        "coordinates": [
          126.8683622,
          35.1926898
        ]
      },
      "id": "node/436355867"
    },
    {
      "type": "Feature",
      "properties": {
        "@id": "node/436355868"
      },
      "geometry": {
        "type": "Point",
        "coordinates": [
          126.8677721,
          35.1928125
        ]
      },
      "id": "node/436355868"
    },
    {
      "type": "Feature",
      "properties": {
        "@id": "node/436355869"
      },
      "geometry": {
        "type": "Point",
        "coordinates": [
          126.8672083,
          35.1929026
        ]
      },
      "id": "node/436355869"
    },
    {
      "type": "Feature",
      "properties": {
        "@id": "node/436355871"
      },
      "geometry": {
        "type": "Point",
        "coordinates": [
          126.8657233,
          35.1930067
        ]
      },
      "id": "node/436355871"
    },
    {
      "type": "Feature",
      "properties": {
        "@id": "node/436358121"
      },
      "geometry": {
        "type": "Point",
        "coordinates": [
          126.8432263,
          35.199966
        ]
      },
      "id": "node/436358121"
    },
    {
      "type": "Feature",
      "properties": {
        "@id": "node/436358122"
      },
      "geometry": {
        "type": "Point",
        "coordinates": [
          126.8435104,
          35.1997258
        ]
      },
      "id": "node/436358122"
    },
    {
      "type": "Feature",
      "properties": {
        "@id": "node/436358123"
      },
      "geometry": {
        "type": "Point",
        "coordinates": [
          126.8457985,
          35.1978656
        ]
      },
      "id": "node/436358123"
    },
    {
      "type": "Feature",
      "properties": {
        "@id": "node/436358124"
      },
      "geometry": {
        "type": "Point",
        "coordinates": [
          126.8472797,
          35.1966594
        ]
      },
      "id": "node/436358124"
    },
    {
      "type": "Feature",
      "properties": {
        "@id": "node/436358125"
      },
      "geometry": {
        "type": "Point",
        "coordinates": [
          126.8479759,
          35.1960685
        ]
      },
      "id": "node/436358125"
    },
    {
      "type": "Feature",
      "properties": {
        "@id": "node/436358126"
      },
      "geometry": {
        "type": "Point",
        "coordinates": [
          126.8492119,
          35.1950707
        ]
      },
      "id": "node/436358126"
    },
    {
      "type": "Feature",
      "properties": {
        "@id": "node/436358127"
      },
      "geometry": {
        "type": "Point",
        "coordinates": [
          126.84987,
          35.1945948
        ]
      },
      "id": "node/436358127"
    },
    {
      "type": "Feature",
      "properties": {
        "@id": "node/436358128"
      },
      "geometry": {
        "type": "Point",
        "coordinates": [
          126.8503635,
          35.1942726
        ]
      },
      "id": "node/436358128"
    },
    {
      "type": "Feature",
      "properties": {
        "@id": "node/436358129"
      },
      "geometry": {
        "type": "Point",
        "coordinates": [
          126.8513151,
          35.1937601
        ]
      },
      "id": "node/436358129"
    },
    {
      "type": "Feature",
      "properties": {
        "@id": "node/436358131"
      },
      "geometry": {
        "type": "Point",
        "coordinates": [
          126.8523753,
          35.1932997
        ]
      },
      "id": "node/436358131"
    },
    {
      "type": "Feature",
      "properties": {
        "@id": "node/436358132",
        "highway": "motorway_junction",
        "name": "동림IC",
        "name:en": "Donglim IC",
        "ref": "13"
      },
      "geometry": {
        "type": "Point",
        "coordinates": [
          126.8533537,
          35.1929811
        ]
      },
      "id": "node/436358132"
    },
    {
      "type": "Feature",
      "properties": {
        "@id": "node/436358133"
      },
      "geometry": {
        "type": "Point",
        "coordinates": [
          126.857861,
          35.1924934
        ]
      },
      "id": "node/436358133"
    },
    {
      "type": "Feature",
      "properties": {
        "@id": "node/436358137"
      },
      "geometry": {
        "type": "Point",
        "coordinates": [
          126.8623581,
          35.192686
        ]
      },
      "id": "node/436358137"
    },
    {
      "type": "Feature",
      "properties": {
        "@id": "node/436358138"
      },
      "geometry": {
        "type": "Point",
        "coordinates": [
          126.8639294,
          35.1927588
        ]
      },
      "id": "node/436358138"
    },
    {
      "type": "Feature",
      "properties": {
        "@id": "node/436358139"
      },
      "geometry": {
        "type": "Point",
        "coordinates": [
          126.8665711,
          35.1927875
        ]
      },
      "id": "node/436358139"
    },
    {
      "type": "Feature",
      "properties": {
        "@id": "node/436358141"
      },
      "geometry": {
        "type": "Point",
        "coordinates": [
          126.8672268,
          35.1927299
        ]
      },
      "id": "node/436358141"
    },
    {
      "type": "Feature",
      "properties": {
        "@id": "node/436780326"
      },
      "geometry": {
        "type": "Point",
        "coordinates": [
          126.8429487,
          35.1973218
        ]
      },
      "id": "node/436780326"
    },
    {
      "type": "Feature",
      "properties": {
        "@id": "node/436780328"
      },
      "geometry": {
        "type": "Point",
        "coordinates": [
          126.8425241,
          35.1976471
        ]
      },
      "id": "node/436780328"
    },
    {
      "type": "Feature",
      "properties": {
        "@id": "node/436780329"
      },
      "geometry": {
        "type": "Point",
        "coordinates": [
          126.8418611,
          35.197039
        ]
      },
      "id": "node/436780329"
    },
    {
      "type": "Feature",
      "properties": {
        "@id": "node/436780330"
      },
      "geometry": {
        "type": "Point",
        "coordinates": [
          126.8406581,
          35.1960322
        ]
      },
      "id": "node/436780330"
    },
    {
      "type": "Feature",
      "properties": {
        "@id": "node/436780332",
        "highway": "traffic_signals",
        "traffic_signals": "signal"
      },
      "geometry": {
        "type": "Point",
        "coordinates": [
          126.8403533,
          35.1954007
        ]
      },
      "id": "node/436780332"
    },
    {
      "type": "Feature",
      "properties": {
        "@id": "node/436780334"
      },
      "geometry": {
        "type": "Point",
        "coordinates": [
          126.8436954,
          35.1946933
        ]
      },
      "id": "node/436780334"
    },
    {
      "type": "Feature",
      "properties": {
        "@id": "node/436780336"
      },
      "geometry": {
        "type": "Point",
        "coordinates": [
          126.8453937,
          35.1938422
        ]
      },
      "id": "node/436780336"
    },
    {
      "type": "Feature",
      "properties": {
        "@id": "node/436780338",
        "highway": "traffic_signals",
        "traffic_signals": "signal"
      },
      "geometry": {
        "type": "Point",
        "coordinates": [
          126.8464407,
          35.1954585
        ]
      },
      "id": "node/436780338"
    },
    {
      "type": "Feature",
      "properties": {
        "@id": "node/436780363"
      },
      "geometry": {
        "type": "Point",
        "coordinates": [
          126.8401379,
          35.1906271
        ]
      },
      "id": "node/436780363"
    },
    {
      "type": "Feature",
      "properties": {
        "@id": "node/436780364"
      },
      "geometry": {
        "type": "Point",
        "coordinates": [
          126.8405664,
          35.1907278
        ]
      },
      "id": "node/436780364"
    },
    {
      "type": "Feature",
      "properties": {
        "@id": "node/436780365"
      },
      "geometry": {
        "type": "Point",
        "coordinates": [
          126.8430946,
          35.19195
        ]
      },
      "id": "node/436780365"
    },
    {
      "type": "Feature",
      "properties": {
        "@id": "node/436780367"
      },
      "geometry": {
        "type": "Point",
        "coordinates": [
          126.8444019,
          35.1925255
        ]
      },
      "id": "node/436780367"
    },
    {
      "type": "Feature",
      "properties": {
        "@id": "node/436780368"
      },
      "geometry": {
        "type": "Point",
        "coordinates": [
          126.8447841,
          35.1928324
        ]
      },
      "id": "node/436780368"
    },
    {
      "type": "Feature",
      "properties": {
        "@id": "node/436780374"
      },
      "geometry": {
        "type": "Point",
        "coordinates": [
          126.8437684,
          35.1962542
        ]
      },
      "id": "node/436780374"
    },
    {
      "type": "Feature",
      "properties": {
        "@id": "node/436780375"
      },
      "geometry": {
        "type": "Point",
        "coordinates": [
          126.8439492,
          35.1968354
        ]
      },
      "id": "node/436780375"
    },
    {
      "type": "Feature",
      "properties": {
        "@id": "node/436780376"
      },
      "geometry": {
        "type": "Point",
        "coordinates": [
          126.8439436,
          35.1970993
        ]
      },
      "id": "node/436780376"
    },
    {
      "type": "Feature",
      "properties": {
        "@id": "node/436780377"
      },
      "geometry": {
        "type": "Point",
        "coordinates": [
          126.8432685,
          35.1984682
        ]
      },
      "id": "node/436780377"
    },
    {
      "type": "Feature",
      "properties": {
        "@id": "node/436780380"
      },
      "geometry": {
        "type": "Point",
        "coordinates": [
          126.8431189,
          35.1972659
        ]
      },
      "id": "node/436780380"
    },
    {
      "type": "Feature",
      "properties": {
        "@id": "node/436804272"
      },
      "geometry": {
        "type": "Point",
        "coordinates": [
          126.8628887,
          35.1720859
        ]
      },
      "id": "node/436804272"
    },
    {
      "type": "Feature",
      "properties": {
        "@id": "node/436804273"
      },
      "geometry": {
        "type": "Point",
        "coordinates": [
          126.863114,
          35.1748476
        ]
      },
      "id": "node/436804273"
    },
    {
      "type": "Feature",
      "properties": {
        "@id": "node/436804317"
      },
      "geometry": {
        "type": "Point",
        "coordinates": [
          126.857672,
          35.1621185
        ]
      },
      "id": "node/436804317"
    },
    {
      "type": "Feature",
      "properties": {
        "@id": "node/436817060"
      },
      "geometry": {
        "type": "Point",
        "coordinates": [
          126.8441349,
          35.1600968
        ]
      },
      "id": "node/436817060"
    },
    {
      "type": "Feature",
      "properties": {
        "@id": "node/436817063"
      },
      "geometry": {
        "type": "Point",
        "coordinates": [
          126.8450092,
          35.1602429
        ]
      },
      "id": "node/436817063"
    },
    {
      "type": "Feature",
      "properties": {
        "@id": "node/436817065"
      },
      "geometry": {
        "type": "Point",
        "coordinates": [
          126.848279,
          35.1605613
        ]
      },
      "id": "node/436817065"
    },
    {
      "type": "Feature",
      "properties": {
        "@id": "node/436817068"
      },
      "geometry": {
        "type": "Point",
        "coordinates": [
          126.8503552,
          35.1607277
        ]
      },
      "id": "node/436817068"
    },
    {
      "type": "Feature",
      "properties": {
        "@id": "node/436817075"
      },
      "geometry": {
        "type": "Point",
        "coordinates": [
          126.8528001,
          35.1619437
        ]
      },
      "id": "node/436817075"
    },
    {
      "type": "Feature",
      "properties": {
        "@id": "node/436817077"
      },
      "geometry": {
        "type": "Point",
        "coordinates": [
          126.853919,
          35.1622405
        ]
      },
      "id": "node/436817077"
    },
    {
      "type": "Feature",
      "properties": {
        "@id": "node/436817079"
      },
      "geometry": {
        "type": "Point",
        "coordinates": [
          126.8549867,
          35.1622067
        ]
      },
      "id": "node/436817079"
    },
    {
      "type": "Feature",
      "properties": {
        "@id": "node/436817087"
      },
      "geometry": {
        "type": "Point",
        "coordinates": [
          126.8594878,
          35.160303
        ]
      },
      "id": "node/436817087"
    },
    {
      "type": "Feature",
      "properties": {
        "@id": "node/436817089"
      },
      "geometry": {
        "type": "Point",
        "coordinates": [
          126.8585487,
          35.160356
        ]
      },
      "id": "node/436817089"
    },
    {
      "type": "Feature",
      "properties": {
        "@id": "node/436817091"
      },
      "geometry": {
        "type": "Point",
        "coordinates": [
          126.85655,
          35.16043
        ]
      },
      "id": "node/436817091"
    },
    {
      "type": "Feature",
      "properties": {
        "@id": "node/436822758",
        "name": "광암고가교종점 (Gwangamgogagyo Last stop)",
        "name:en": "Gwangamgogagyo Last stop",
        "name:ko-Latn": "Gwangamgogagyojongjeom",
        "ncat": "교차로및지명",
        "source": "mp2osm"
      },
      "geometry": {
        "type": "Point",
        "coordinates": [
          126.8774482,
          35.1698177
        ]
      },
      "id": "node/436822758"
    },
    {
      "type": "Feature",
      "properties": {
        "@id": "node/436822759"
      },
      "geometry": {
        "type": "Point",
        "coordinates": [
          126.8776422,
          35.172299
        ]
      },
      "id": "node/436822759"
    },
    {
      "type": "Feature",
      "properties": {
        "@id": "node/436822762"
      },
      "geometry": {
        "type": "Point",
        "coordinates": [
          126.8777665,
          35.1744734
        ]
      },
      "id": "node/436822762"
    },
    {
      "type": "Feature",
      "properties": {
        "@id": "node/436822765"
      },
      "geometry": {
        "type": "Point",
        "coordinates": [
          126.878472,
          35.1760607
        ]
      },
      "id": "node/436822765"
    },
    {
      "type": "Feature",
      "properties": {
        "@id": "node/436822801"
      },
      "geometry": {
        "type": "Point",
        "coordinates": [
          126.877131,
          35.1615276
        ]
      },
      "id": "node/436822801"
    },
    {
      "type": "Feature",
      "properties": {
        "@id": "node/436822802"
      },
      "geometry": {
        "type": "Point",
        "coordinates": [
          126.8771926,
          35.1634062
        ]
      },
      "id": "node/436822802"
    },
    {
      "type": "Feature",
      "properties": {
        "@id": "node/436822803"
      },
      "geometry": {
        "type": "Point",
        "coordinates": [
          126.8772682,
          35.1649508
        ]
      },
      "id": "node/436822803"
    },
    {
      "type": "Feature",
      "properties": {
        "@id": "node/436822804"
      },
      "geometry": {
        "type": "Point",
        "coordinates": [
          126.8772976,
          35.1658596
        ]
      },
      "id": "node/436822804"
    },
    {
      "type": "Feature",
      "properties": {
        "@id": "node/436822805"
      },
      "geometry": {
        "type": "Point",
        "coordinates": [
          126.8773198,
          35.1661779
        ]
      },
      "id": "node/436822805"
    },
    {
      "type": "Feature",
      "properties": {
        "@id": "node/436822808"
      },
      "geometry": {
        "type": "Point",
        "coordinates": [
          126.8774075,
          35.1687081
        ]
      },
      "id": "node/436822808"
    },
    {
      "type": "Feature",
      "properties": {
        "@id": "node/436822876"
      },
      "geometry": {
        "type": "Point",
        "coordinates": [
          126.8793665,
          35.1693127
        ]
      },
      "id": "node/436822876"
    },
    {
      "type": "Feature",
      "properties": {
        "@id": "node/436822877"
      },
      "geometry": {
        "type": "Point",
        "coordinates": [
          126.8788726,
          35.1693407
        ]
      },
      "id": "node/436822877"
    },
    {
      "type": "Feature",
      "properties": {
        "@id": "node/436822878"
      },
      "geometry": {
        "type": "Point",
        "coordinates": [
          126.8774869,
          35.169374
        ]
      },
      "id": "node/436822878"
    },
    {
      "type": "Feature",
      "properties": {
        "@id": "node/436822879"
      },
      "geometry": {
        "type": "Point",
        "coordinates": [
          126.8770321,
          35.1693619
        ]
      },
      "id": "node/436822879"
    },
    {
      "type": "Feature",
      "properties": {
        "@id": "node/436822886"
      },
      "geometry": {
        "type": "Point",
        "coordinates": [
          126.856663,
          35.1660255
        ]
      },
      "id": "node/436822886"
    },
    {
      "type": "Feature",
      "properties": {
        "@id": "node/436822888"
      },
      "geometry": {
        "type": "Point",
        "coordinates": [
          126.8568986,
          35.1662363
        ]
      },
      "id": "node/436822888"
    },
    {
      "type": "Feature",
      "properties": {
        "@id": "node/436822889"
      },
      "geometry": {
        "type": "Point",
        "coordinates": [
          126.8572788,
          35.1664235
        ]
      },
      "id": "node/436822889"
    },
    {
      "type": "Feature",
      "properties": {
        "@id": "node/436822894"
      },
      "geometry": {
        "type": "Point",
        "coordinates": [
          126.8576219,
          35.1665352
        ]
      },
      "id": "node/436822894"
    },
    {
      "type": "Feature",
      "properties": {
        "@id": "node/436822896"
      },
      "geometry": {
        "type": "Point",
        "coordinates": [
          126.8580843,
          35.1667214
        ]
      },
      "id": "node/436822896"
    },
    {
      "type": "Feature",
      "properties": {
        "@id": "node/436822897"
      },
      "geometry": {
        "type": "Point",
        "coordinates": [
          126.8590803,
          35.1670461
        ]
      },
      "id": "node/436822897"
    },
    {
      "type": "Feature",
      "properties": {
        "@id": "node/436822898"
      },
      "geometry": {
        "type": "Point",
        "coordinates": [
          126.859445,
          35.16716
        ]
      },
      "id": "node/436822898"
    },
    {
      "type": "Feature",
      "properties": {
        "@id": "node/436822899"
      },
      "geometry": {
        "type": "Point",
        "coordinates": [
          126.8601182,
          35.1673211
        ]
      },
      "id": "node/436822899"
    },
    {
      "type": "Feature",
      "properties": {
        "@id": "node/436822902"
      },
      "geometry": {
        "type": "Point",
        "coordinates": [
          126.8615407,
          35.1675516
        ]
      },
      "id": "node/436822902"
    },
    {
      "type": "Feature",
      "properties": {
        "@id": "node/436822903"
      },
      "geometry": {
        "type": "Point",
        "coordinates": [
          126.8621736,
          35.1676574
        ]
      },
      "id": "node/436822903"
    },
    {
      "type": "Feature",
      "properties": {
        "@id": "node/436822904"
      },
      "geometry": {
        "type": "Point",
        "coordinates": [
          126.8631602,
          35.1677329
        ]
      },
      "id": "node/436822904"
    },
    {
      "type": "Feature",
      "properties": {
        "@id": "node/436822906"
      },
      "geometry": {
        "type": "Point",
        "coordinates": [
          126.8639273,
          35.1677002
        ]
      },
      "id": "node/436822906"
    },
    {
      "type": "Feature",
      "properties": {
        "@id": "node/436822907"
      },
      "geometry": {
        "type": "Point",
        "coordinates": [
          126.86458,
          35.1676325
        ]
      },
      "id": "node/436822907"
    },
    {
      "type": "Feature",
      "properties": {
        "@id": "node/436822909"
      },
      "geometry": {
        "type": "Point",
        "coordinates": [
          126.8651586,
          35.1675302
        ]
      },
      "id": "node/436822909"
    },
    {
      "type": "Feature",
      "properties": {
        "@id": "node/436822910"
      },
      "geometry": {
        "type": "Point",
        "coordinates": [
          126.8656959,
          35.1674069
        ]
      },
      "id": "node/436822910"
    },
    {
      "type": "Feature",
      "properties": {
        "@id": "node/436822911"
      },
      "geometry": {
        "type": "Point",
        "coordinates": [
          126.8662689,
          35.1672718
        ]
      },
      "id": "node/436822911"
    },
    {
      "type": "Feature",
      "properties": {
        "@id": "node/436822912"
      },
      "geometry": {
        "type": "Point",
        "coordinates": [
          126.866718,
          35.1671599
        ]
      },
      "id": "node/436822912"
    },
    {
      "type": "Feature",
      "properties": {
        "@id": "node/436822913"
      },
      "geometry": {
        "type": "Point",
        "coordinates": [
          126.868304,
          35.1668598
        ]
      },
      "id": "node/436822913"
    },
    {
      "type": "Feature",
      "properties": {
        "@id": "node/436822914"
      },
      "geometry": {
        "type": "Point",
        "coordinates": [
          126.8689137,
          35.1668201
        ]
      },
      "id": "node/436822914"
    },
    {
      "type": "Feature",
      "properties": {
        "@id": "node/436822915"
      },
      "geometry": {
        "type": "Point",
        "coordinates": [
          126.8697646,
          35.166792
        ]
      },
      "id": "node/436822915"
    },
    {
      "type": "Feature",
      "properties": {
        "@id": "node/436822917"
      },
      "geometry": {
        "type": "Point",
        "coordinates": [
          126.8704994,
          35.1668358
        ]
      },
      "id": "node/436822917"
    },
    {
      "type": "Feature",
      "properties": {
        "@id": "node/436822918"
      },
      "geometry": {
        "type": "Point",
        "coordinates": [
          126.8708368,
          35.1668683
        ]
      },
      "id": "node/436822918"
    },
    {
      "type": "Feature",
      "properties": {
        "@id": "node/436822919"
      },
      "geometry": {
        "type": "Point",
        "coordinates": [
          126.8714018,
          35.1669695
        ]
      },
      "id": "node/436822919"
    },
    {
      "type": "Feature",
      "properties": {
        "@id": "node/436822920"
      },
      "geometry": {
        "type": "Point",
        "coordinates": [
          126.8717623,
          35.1670549
        ]
      },
      "id": "node/436822920"
    },
    {
      "type": "Feature",
      "properties": {
        "@id": "node/436822921"
      },
      "geometry": {
        "type": "Point",
        "coordinates": [
          126.8724037,
          35.1672518
        ]
      },
      "id": "node/436822921"
    },
    {
      "type": "Feature",
      "properties": {
        "@id": "node/436822923"
      },
      "geometry": {
        "type": "Point",
        "coordinates": [
          126.8738409,
          35.1679432
        ]
      },
      "id": "node/436822923"
    },
    {
      "type": "Feature",
      "properties": {
        "@id": "node/436822924"
      },
      "geometry": {
        "type": "Point",
        "coordinates": [
          126.87439,
          35.16826
        ]
      },
      "id": "node/436822924"
    },
    {
      "type": "Feature",
      "properties": {
        "@id": "node/436822925"
      },
      "geometry": {
        "type": "Point",
        "coordinates": [
          126.87491,
          35.16859
        ]
      },
      "id": "node/436822925"
    },
    {
      "type": "Feature",
      "properties": {
        "@id": "node/436822926"
      },
      "geometry": {
        "type": "Point",
        "coordinates": [
          126.87561,
          35.16891
        ]
      },
      "id": "node/436822926"
    },
    {
      "type": "Feature",
      "properties": {
        "@id": "node/436822928"
      },
      "geometry": {
        "type": "Point",
        "coordinates": [
          126.87614,
          35.16915
        ]
      },
      "id": "node/436822928"
    },
    {
      "type": "Feature",
      "properties": {
        "@id": "node/436822929"
      },
      "geometry": {
        "type": "Point",
        "coordinates": [
          126.87636,
          35.16922
        ]
      },
      "id": "node/436822929"
    },
    {
      "type": "Feature",
      "properties": {
        "@id": "node/436827204"
      },
      "geometry": {
        "type": "Point",
        "coordinates": [
          126.8607119,
          35.1620451
        ]
      },
      "id": "node/436827204"
    },
    {
      "type": "Feature",
      "properties": {
        "@id": "node/436827205"
      },
      "geometry": {
        "type": "Point",
        "coordinates": [
          126.8593721,
          35.1622224
        ]
      },
      "id": "node/436827205"
    },
    {
      "type": "Feature",
      "properties": {
        "@id": "node/436832562"
      },
      "geometry": {
        "type": "Point",
        "coordinates": [
          126.8456164,
          35.1602925
        ]
      },
      "id": "node/436832562"
    },
    {
      "type": "Feature",
      "properties": {
        "@id": "node/436834284"
      },
      "geometry": {
        "type": "Point",
        "coordinates": [
          126.8733093,
          35.1730004
        ]
      },
      "id": "node/436834284"
    },
    {
      "type": "Feature",
      "properties": {
        "@id": "node/436834285"
      },
      "geometry": {
        "type": "Point",
        "coordinates": [
          126.8734286,
          35.1743072
        ]
      },
      "id": "node/436834285"
    },
    {
      "type": "Feature",
      "properties": {
        "@id": "node/436834286"
      },
      "geometry": {
        "type": "Point",
        "coordinates": [
          126.8735506,
          35.1761944
        ]
      },
      "id": "node/436834286"
    },
    {
      "type": "Feature",
      "properties": {
        "@id": "node/436834288"
      },
      "geometry": {
        "type": "Point",
        "coordinates": [
          126.87714,
          35.17576
        ]
      },
      "id": "node/436834288"
    },
    {
      "type": "Feature",
      "properties": {
        "@id": "node/436834289"
      },
      "geometry": {
        "type": "Point",
        "coordinates": [
          126.8759785,
          35.1758344
        ]
      },
      "id": "node/436834289"
    },
    {
      "type": "Feature",
      "properties": {
        "@id": "node/436834291"
      },
      "geometry": {
        "type": "Point",
        "coordinates": [
          126.8710209,
          35.1765436
        ]
      },
      "id": "node/436834291"
    },
    {
      "type": "Feature",
      "properties": {
        "@id": "node/436834294"
      },
      "geometry": {
        "type": "Point",
        "coordinates": [
          126.8730786,
          35.1744256
        ]
      },
      "id": "node/436834294"
    },
    {
      "type": "Feature",
      "properties": {
        "@id": "node/436835865"
      },
      "geometry": {
        "type": "Point",
        "coordinates": [
          126.8406374,
          35.1728953
        ]
      },
      "id": "node/436835865"
    },
    {
      "type": "Feature",
      "properties": {
        "@id": "node/436835866"
      },
      "geometry": {
        "type": "Point",
        "coordinates": [
          126.8412462,
          35.1738049
        ]
      },
      "id": "node/436835866"
    },
    {
      "type": "Feature",
      "properties": {
        "@id": "node/436835867"
      },
      "geometry": {
        "type": "Point",
        "coordinates": [
          126.8426108,
          35.1759154
        ]
      },
      "id": "node/436835867"
    },
    {
      "type": "Feature",
      "properties": {
        "@id": "node/436835868"
      },
      "geometry": {
        "type": "Point",
        "coordinates": [
          126.8428619,
          35.1762358
        ]
      },
      "id": "node/436835868"
    },
    {
      "type": "Feature",
      "properties": {
        "@id": "node/436837289"
      },
      "geometry": {
        "type": "Point",
        "coordinates": [
          126.8583311,
          35.1748605
        ]
      },
      "id": "node/436837289"
    },
    {
      "type": "Feature",
      "properties": {
        "@id": "node/436837296"
      },
      "geometry": {
        "type": "Point",
        "coordinates": [
          126.8638021,
          35.1720311
        ]
      },
      "id": "node/436837296"
    },
    {
      "type": "Feature",
      "properties": {
        "@id": "node/436837297"
      },
      "geometry": {
        "type": "Point",
        "coordinates": [
          126.8640414,
          35.1748016
        ]
      },
      "id": "node/436837297"
    },
    {
      "type": "Feature",
      "properties": {
        "@id": "node/436837298"
      },
      "geometry": {
        "type": "Point",
        "coordinates": [
          126.8640689,
          35.1753118
        ]
      },
      "id": "node/436837298"
    },
    {
      "type": "Feature",
      "properties": {
        "@id": "node/436837299"
      },
      "geometry": {
        "type": "Point",
        "coordinates": [
          126.864326,
          35.1776711
        ]
      },
      "id": "node/436837299"
    },
    {
      "type": "Feature",
      "properties": {
        "@id": "node/436837300"
      },
      "geometry": {
        "type": "Point",
        "coordinates": [
          126.864508,
          35.1784137
        ]
      },
      "id": "node/436837300"
    },
    {
      "type": "Feature",
      "properties": {
        "@id": "node/436837301"
      },
      "geometry": {
        "type": "Point",
        "coordinates": [
          126.8645043,
          35.1784844
        ]
      },
      "id": "node/436837301"
    },
    {
      "type": "Feature",
      "properties": {
        "@id": "node/436837302"
      },
      "geometry": {
        "type": "Point",
        "coordinates": [
          126.8644734,
          35.1785542
        ]
      },
      "id": "node/436837302"
    },
    {
      "type": "Feature",
      "properties": {
        "@id": "node/436837303"
      },
      "geometry": {
        "type": "Point",
        "coordinates": [
          126.8640866,
          35.1786588
        ]
      },
      "id": "node/436837303"
    },
    {
      "type": "Feature",
      "properties": {
        "@id": "node/436837304"
      },
      "geometry": {
        "type": "Point",
        "coordinates": [
          126.86378,
          35.17873
        ]
      },
      "id": "node/436837304"
    },
    {
      "type": "Feature",
      "properties": {
        "@id": "node/436837305"
      },
      "geometry": {
        "type": "Point",
        "coordinates": [
          126.86349,
          35.17876
        ]
      },
      "id": "node/436837305"
    },
    {
      "type": "Feature",
      "properties": {
        "@id": "node/436837306"
      },
      "geometry": {
        "type": "Point",
        "coordinates": [
          126.86321,
          35.17876
        ]
      },
      "id": "node/436837306"
    },
    {
      "type": "Feature",
      "properties": {
        "@id": "node/436838000"
      },
      "geometry": {
        "type": "Point",
        "coordinates": [
          126.8766767,
          35.1789263
        ]
      },
      "id": "node/436838000"
    },
    {
      "type": "Feature",
      "properties": {
        "@id": "node/436838001"
      },